{"version": 0.6, "generator": "Overpass API 0.7.62.1 084b4234", "osm3s": {"timestamp_osm_base": "2024-10-08T09:46:13Z", "copyright": "The data included in this document is from www.openstreetmap.org. The data is made available under ODbL."}, "elements": [{"type": "node", "id": 26808561, "lat": 40.4256418, "lon": -3.7121995, "tags": {"website": "http://murcafe.es/", "addr:city": "Madrid", "addr:housenumber": "2", "addr:postcode": "28015", "addr:street": "Plaza de Cristino Martos", "amenity": "bar", "email": "hola@murcafe.com", "name": "M\u00fcr Caf\u00e9", "phone": "+34 91 139 98 09"}}, {"type": "node", "id": 43274445, "lat": 40.4874732, "lon": -3.699712, "tags": {"amenity": "bar", "name": "Cadillac Solitario"}}, {"type": "node", "id": 47216276, "lat": 40.4130638, "lon": -3.7129344, "tags": {"amenity": "bar", "name": "Bar Barocco"}}, {"type": "node", "id": 167301896, "lat": 40.4094884, "lon": -3.6938073, "tags": {"name": "Bar", "amenity": "bar"}}, {"type": "node", "id": 167301964, "lat": 40.4116383, "lon": -3.6979403, "tags": {"amenity": "bar"}}, {"type": "node", "id": 167302111, "lat": 40.4124453, "lon": -3.6961583, "tags": {"amenity": "bar", "name": "Fever", "wheelchair": "no"}}, {"type": "node", "id": 167302439, "lat": 40.4128038, "lon": -3.695685, "tags": {"amenity": "bar", "name": "La Hidria"}}, {"type": "node", "id": 167302513, "lat": 40.4129838, "lon": -3.6956873, "tags": {"amenity": "bar", "name": "La Esquina"}}, {"type": "node", "id": 167302636, "lat": 40.412803, "lon": -3.6946194}, {"type": "node", "id": 167302640, "lat": 40.413178, "lon": -3.6957012, "tags": {"name": "El Diario", "amenity": "bar", "addr:street": "Calle de las Huertas", "addr:housenumber": "69"}}, {"type": "node", "id": 167302641, "lat": 40.4136254, "lon": -3.6956999, "tags": {"addr:city": "Madrid", "addr:housenumber": "2", "addr:postcode": "28014", "addr:street": "Calle de Jes\u00fas", "amenity": "bar", "contact:facebook": "https://www.facebook.com/pages/Cervecer%C3%ADa-La-F%C3%A1brica/135300993192900", "contact:phone": "+34 913 69 06 71", "name": "La F\u00e1brica"}}, {"type": "node", "id": 167302645, "lat": 40.4135119, "lon": -3.6957073, "tags": {"amenity": "bar", "name": "Los Gatos", "wikidata": "Q57446751"}}, {"type": "node", "id": 167302652, "lat": 40.4133633, "lon": -3.695701, "tags": {"amenity": "bar", "name": "La Ancho\u00edta"}}, {"type": "node", "id": 167302693, "lat": 40.4141167, "lon": -3.6957942, "tags": {"fixme": "name", "addr:city": "Madrid", "addr:housenumber": "7", "addr:postcode": "28014", "addr:street": "Plaza de Jes\u00fas", "amenity": "bar", "contact:phone": "+34 91 389 62 38", "contact:website": "http://www.tabernadeladaniela.com/nuestras-danielas/la-daniela-medinaceli/", "name": "Taberna de la Daniela"}}, {"type": "node", "id": 178820898, "lat": 40.4154807, "lon": -3.7111249, "tags": {"name": "La Amarilla", "wheelchair": "no", "addr:city": "Madrid", "addr:housenumber": "74", "addr:postcode": "28013", "addr:street": "Calle Mayor", "amenity": "bar"}}, {"type": "node", "id": 178821046, "lat": 40.416073, "lon": -3.7085285, "tags": {"addr:city": "Madrid", "addr:housenumber": "42", "addr:postcode": "28013", "addr:street": "Calle Mayor", "amenity": "bar", "name": "Velicia"}}, {"type": "node", "id": 184049106, "lat": 40.4188918, "lon": -3.7086559, "tags": {"addr:street": "Calle Ca\u00f1os del Peral", "addr:city": "Madrid", "addr:housenumber": "7", "addr:postcode": "28013", "amenity": "bar", "name": "Discoteca Olimpia"}}, {"type": "node", "id": 184049359, "lat": 40.4191018, "lon": -3.7039069, "tags": {"amenity": "bar"}}, {"type": "node", "id": 266390246, "lat": 40.4231951, "lon": -3.6982486, "tags": {"old_name": "BAires", "amenity": "bar", "name": "El Buo"}}, {"type": "node", "id": 324407545, "lat": 40.4395443, "lon": -3.6426533, "tags": {"amenity": "bar", "name": "QOF"}}, {"type": "node", "id": 324407693, "lat": 40.4410967, "lon": -3.6440189, "tags": {"amenity": "bar", "name": "Otero"}}, {"type": "node", "id": 324407777, "lat": 40.43777, "lon": -3.6394243, "tags": {"amenity": "bar"}}, {"type": "node", "id": 324407779, "lat": 40.4378423, "lon": -3.6394847, "tags": {"amenity": "bar", "name": "Bus"}}, {"type": "node", "id": 324407780, "lat": 40.4379561, "lon": -3.6395911, "tags": {"amenity": "bar", "name": "La Marina"}}, {"type": "node", "id": 324407782, "lat": 40.4379692, "lon": -3.6401759, "tags": {"amenity": "bar", "name": "Altagracia"}}, {"type": "node", "id": 353133732, "lat": 40.5044902, "lon": -3.7034573, "tags": {"name": "Punto de Amarre", "old_name": "Barclays", "amenity": "bar"}}, {"type": "node", "id": 414805345, "lat": 40.4677937, "lon": -3.7948595, "tags": {"amenity": "bar", "name": "Ito Ita"}}, {"type": "node", "id": 530601815, "lat": 40.3642449, "lon": -3.5889171, "tags": {"opening_hours": "07:00 - 01:00", "amenity": "bar", "name": "Cervecer\u00eda Sureste", "smoking": "outside"}}, {"type": "node", "id": 544773348, "lat": 40.43288, "lon": -3.7028322, "tags": {"amenity": "bar", "name": "La Industria"}}, {"type": "node", "id": 546323709, "lat": 40.4035341, "lon": -3.690538, "tags": {"addr:city": "Madrid", "addr:housenumber": "7", "addr:postcode": "28045", "addr:street": "Calle del General Lacy", "amenity": "bar", "name": "El Rosario"}}, {"type": "node", "id": 588396120, "lat": 40.4696893, "lon": -3.5861034, "tags": {"name": "Egunon", "amenity": "bar"}}, {"type": "node", "id": 588396124, "lat": 40.4697057, "lon": -3.5872112, "tags": {"amenity": "bar"}}, {"type": "node", "id": 622204625, "lat": 40.4143568, "lon": -3.7011949, "tags": {"amenity": "bar", "cuisine": "hawaiian", "name": "Bar Hawaiano Mauna Loa"}}, {"type": "node", "id": 623071234, "lat": 40.4251204, "lon": -3.714055, "tags": {"name": "Cervecer\u00eda Rodr\u00edguez", "amenity": "bar"}}, {"type": "node", "id": 624783051, "lat": 40.4043735, "lon": -3.7502913, "tags": {"amenity": "bar", "name": "Casarrubios"}}, {"type": "node", "id": 674492243, "lat": 40.426473, "lon": -3.7067156, "tags": {"website": "http://www.pubtempo2.com/", "addr:city": "Madrid", "addr:housenumber": "66", "addr:postcode": "28015", "addr:street": "Calle de San Bernardo", "amenity": "bar", "name": "Tempo II", "phone": "+34 91 531 37 68"}}, {"type": "node", "id": 732666983, "lat": 40.4301757, "lon": -3.7008886, "tags": {"addr:street": "Calle de Luchana", "amenity": "bar", "name": "La Casa de la Cerveza"}}, {"type": "node", "id": 747743951, "lat": 40.4762852, "lon": -3.6402638, "tags": {"amenity": "bar", "name": "cuesta"}}, {"type": "node", "id": 750497101, "lat": 40.4266041, "lon": -3.7037765, "tags": {"addr:street": "Plaza del 2 de Mayo", "name": "Malabar", "addr:city": "Madrid", "addr:housenumber": "9", "addr:postcode": "28004", "amenity": "bar", "contact:phone": "+34 915 311 317", "drink:club-mate": "served"}}, {"type": "node", "id": 810259232, "lat": 40.4462747, "lon": -3.6670337, "tags": {"amenity": "bar", "name": "L'Escampier"}}, {"type": "node", "id": 811416346, "lat": 40.4069709, "lon": -3.6135606, "tags": {"name": "La Perla", "amenity": "bar"}}, {"type": "node", "id": 831245136, "lat": 40.4038625, "lon": -3.6909403, "tags": {"name": "El Rinc\u00f3n de V\u00edctor", "amenity": "bar", "addr:street": "Calle de las Delicias"}}, {"type": "node", "id": 831245146, "lat": 40.4037318, "lon": -3.6909081, "tags": {"wikidata": "Q41958101", "name": "Bodegas Rosell", "amenity": "bar", "addr:city": "Madrid", "addr:housenumber": "14", "addr:postcode": "28045", "addr:street": "Calle del General Lacy"}}, {"type": "node", "id": 832787565, "lat": 40.4007679, "lon": -3.697439, "tags": {"name": "Taberna \"El Vag\u00f3n\"", "amenity": "bar", "addr:street": "Calle del Ferrocarril", "addr:housenumber": "33"}}, {"type": "node", "id": 860341803, "lat": 40.4024256, "lon": -3.7387495, "tags": {"source": "survey", "amenity": "bar"}}, {"type": "node", "id": 860341837, "lat": 40.4024487, "lon": -3.7386053, "tags": {"source": "survey", "name": "Marem", "amenity": "bar"}}, {"type": "node", "id": 967654538, "lat": 40.3686309, "lon": -3.7588184, "tags": {"name": "Bar Villanueva", "amenity": "bar"}}, {"type": "node", "id": 977356078, "lat": 40.3992814, "lon": -3.6852496, "tags": {"amenity": "bar"}}, {"type": "node", "id": 977358919, "lat": 40.3994543, "lon": -3.6857194, "tags": {"amenity": "bar"}}, {"type": "node", "id": 981712992, "lat": 40.4398176, "lon": -3.6759909, "tags": {"amenity": "bar", "name": "Antiguo bar La flor"}}, {"type": "node", "id": 1008451794, "lat": 40.3660376, "lon": -3.6019428, "tags": {"amenity": "bar", "name": "El Gusto es Nuestro"}}, {"type": "node", "id": 1008451974, "lat": 40.368165, "lon": -3.595425, "tags": {"name": "Se\u00f1or\u00edo de las Suertes", "amenity": "bar"}}, {"type": "node", "id": 1008451980, "lat": 40.3650972, "lon": -3.6014918, "tags": {"amenity": "bar", "name": "Come y Calla"}}, {"type": "node", "id": 1010972136, "lat": 40.411457, "lon": -3.6990693, "tags": {"name": "Mas coraz\u00f3n", "amenity": "bar", "recycling:cans": "yes", "recycling:glass": "yes", "recycling:paper": "yes"}}, {"type": "node", "id": 1012470349, "lat": 40.422331, "lon": -3.7041426, "tags": {"website": "http://www.circodelastapas.com/", "addr:city": "Madrid", "addr:country": "ES", "addr:housenumber": "21", "addr:postcode": "28004", "addr:street": "Corredera Baja de San Pablo", "amenity": "bar", "email": "circodelastapas@gmail.com", "name": "Circo de las Tapas", "phone": "+34 911886014"}}, {"type": "node", "id": 1108148051, "lat": 40.4057397, "lon": -3.705086}, {"type": "node", "id": 1108148187, "lat": 40.4057864, "lon": -3.7050706}, {"type": "node", "id": 1108148284, "lat": 40.4057989, "lon": -3.705135}, {"type": "node", "id": 1108148400, "lat": 40.4057522, "lon": -3.7051504}, {"type": "node", "id": 1108148451, "lat": 40.4057776, "lon": -3.7050237}, {"type": "node", "id": 1108148629, "lat": 40.4057612, "lon": -3.7051984}, {"type": "node", "id": 1108148762, "lat": 40.4058151, "lon": -3.7050613}, {"type": "node", "id": 1108148888, "lat": 40.4057262, "lon": -3.7051589}, {"type": "node", "id": 1108148907, "lat": 40.4058272, "lon": -3.7051259}, {"type": "node", "id": 1108148927, "lat": 40.4057141, "lon": -3.7050943}, {"type": "node", "id": 1108149214, "lat": 40.4057309, "lon": -3.7050388}, {"type": "node", "id": 1108149337, "lat": 40.405808, "lon": -3.7051833}, {"type": "node", "id": 1119744698, "lat": 40.4264755, "lon": -3.7037856, "tags": {"toilets:wheelchair": "no", "wheelchair": "yes", "addr:city": "Madrid", "addr:housenumber": "9", "addr:postcode": "28004", "addr:street": "Calle de San Andr\u00e9s", "amenity": "bar", "name": "La Taberna"}}, {"type": "node", "id": 1128664828, "lat": 40.4291805, "lon": -3.6937519, "tags": {"addr:housenumber": "22", "addr:street": "Calle de Almagro", "amenity": "bar", "name": "Whitby", "name:es": "Whitby", "phone": "+34 913197088", "website": "https://www.whitby.es/"}}, {"type": "node", "id": 1178447836, "lat": 40.4110231, "lon": -3.7048751, "tags": {"amenity": "bar", "addr:city": "Madrid", "addr:country": "ES", "addr:housenumber": "18", "addr:postcode": "28012", "addr:street": "Calle del Mes\u00f3n de Paredes", "name": "Marbella"}}, {"type": "node", "id": 1178499022, "lat": 40.4113626, "lon": -3.7110878, "tags": {"amenity": "bar", "name": "Juana la Loca"}}, {"type": "node", "id": 1191046039, "lat": 40.4117813, "lon": -3.7053261, "tags": {"amenity": "bar", "name": "Mariano"}}, {"type": "node", "id": 1216191015, "lat": 40.4530908, "lon": -3.615177, "tags": {"amenity": "bar", "name": "Visconti"}}, {"type": "node", "id": 1224767488, "lat": 40.3971391, "lon": -3.6553321, "tags": {"amenity": "bar", "name": "El Mirador", "name:es": "El Mirador"}}, {"type": "node", "id": 1252641346, "lat": 40.4733208, "lon": -3.6508642, "tags": {"amenity": "bar", "name": "Bar la Esquina Latina"}}, {"type": "node", "id": 1255075998, "lat": 40.4736244, "lon": -3.7236085, "tags": {"amenity": "bar", "designation": "pub", "name": "Danny's Jazz", "addr:housenumber": "63", "addr:postcode": "28035", "addr:street": "Calle Doctor Ram\u00f3n Castroviejo"}}, {"type": "node", "id": 1272945462, "lat": 40.4452379, "lon": -3.6983686, "tags": {"name": "Pin Up", "amenity": "bar", "wifi": "free", "addr:housenumber": "29", "addr:street": "Calle Maudes"}}, {"type": "node", "id": 1299593884, "lat": 40.4444547, "lon": -3.5948038, "tags": {"amenity": "bar", "name": "Torres"}}, {"type": "node", "id": 1299593892, "lat": 40.4491678, "lon": -3.5948737, "tags": {"amenity": "bar", "addr:street": "Plaza San Crist\u00f3bal", "name": "Beer-cola"}}, {"type": "node", "id": 1313062261, "lat": 40.4437315, "lon": -3.5758806, "tags": {"amenity": "bar", "smoking": "no"}}, {"type": "node", "id": 1319826818, "lat": 40.4238729, "lon": -3.6926356, "tags": {"addr:city": "Madrid", "addr:postcode": "28004", "addr:street": "Calle del Marqu\u00e9s de la Ensenada", "amenity": "bar", "name": "Hasta los Andares", "old_name": "El Birrete", "smoking": "no"}}, {"type": "node", "id": 1329861145, "lat": 40.4114997, "lon": -3.709931, "tags": {"amenity": "bar", "name": "La extreme\u00f1a"}}, {"type": "node", "id": 1329909022, "lat": 40.4124627, "lon": -3.7076204}, {"type": "node", "id": 1329909090, "lat": 40.4124597, "lon": -3.7075366}, {"type": "node", "id": 1332770270, "lat": 40.4260706, "lon": -3.6956282, "tags": {"addr:city": "Madrid", "addr:housenumber": "12", "addr:postcode": "28004", "addr:street": "Calle de Campoamor", "amenity": "bar", "contact:website": "http://www.grupocherokee.es/", "name": "Cherokee", "old_name": "Ma\u00efbar"}}, {"type": "node", "id": 1364704731, "lat": 40.4347019, "lon": -3.681434, "tags": {"addr:city": "Madrid", "addr:street": "Calle de Diego de Le\u00f3n", "amenity": "bar", "name": "Bar Escalera del 34"}}, {"type": "node", "id": 1366075262, "lat": 40.4359258, "lon": -3.6805101, "tags": {"amenity": "bar", "name": "Orgaz"}}, {"type": "node", "id": 1366075269, "lat": 40.4349724, "lon": -3.6805545, "tags": {"addr:city": "Madrid", "addr:country": "ES", "addr:housenumber": "107", "addr:postcode": "28006", "addr:street": "Calle de Castell\u00f3", "amenity": "bar", "contact:phone": "+34 915623106", "name": "Bar Rub\u00ed"}}, {"type": "node", "id": 1381733962, "lat": 40.3943622, "lon": -3.7463914, "tags": {"amenity": "bar", "name": "Kiosco"}}, {"type": "node", "id": 1388332887, "lat": 40.4241816, "lon": -3.7037685, "tags": {"old_name_1": "Metropolitain", "name": "Ferrari", "old_name": "Do\u00f1a Pepita", "amenity": "bar", "addr:city": "Madrid", "addr:housenumber": "35", "addr:postcode": "28004", "addr:street": "Calle de la Madera"}}, {"type": "node", "id": 1428141699, "lat": 40.4157993, "lon": -3.6995741, "tags": {"addr:city": "Madrid", "addr:country": "ES", "addr:housenumber": "7", "addr:postcode": "28014", "addr:street": "Calle de Echegaray", "amenity": "bar", "cuisine": "tapas", "description": "Mo-Su 12:30-15:30,19:30+", "name": "La Venencia", "opening_hours": "Mo-Su 12:30-15:30,19:30+"}}, {"type": "node", "id": 1437313174, "lat": 40.3859666, "lon": -3.7443343, "tags": {"amenity": "bar"}}, {"type": "node", "id": 1459085921, "lat": 40.3989605, "lon": -3.6018376, "tags": {"amenity": "bar", "name": "Delphinus"}}, {"type": "node", "id": 1483924474, "lat": 40.4326692, "lon": -3.6872715, "tags": {"payment:bitcoin": "yes", "addr:city": "Madrid", "addr:housenumber": "63", "addr:postcode": "28006", "addr:street": "Calle de Serrano", "amenity": "bar", "name": "Callej\u00f3n de Serrano", "phone": "+34 918310489", "website": "http://www.elcallejondeserrano.com/"}}, {"type": "node", "id": 1513666755, "lat": 40.405594, "lon": -3.7536186, "tags": {"amenity": "bar", "name": "Cervecer\u00eda Lucarpa"}}, {"type": "node", "id": 1514865258, "lat": 40.4101824, "lon": -3.7390949, "tags": {"amenity": "bar", "name": "Bar El Paso"}}, {"type": "node", "id": 1517405726, "lat": 40.4163668, "lon": -3.7015661, "tags": {"amenity": "bar", "name": "La Fontana de Oro"}}, {"type": "node", "id": 1517405727, "lat": 40.4088976, "lon": -3.6990671, "tags": {"amenity": "bar", "name": "Il Morto Che Parla"}}, {"type": "node", "id": 1517405731, "lat": 40.4256127, "lon": -3.7027497, "tags": {"addr:city": "Madrid", "addr:housenumber": "17", "addr:postcode": "28004", "addr:street": "Calle de San Vicente Ferrer", "amenity": "bar", "contact:website": "http://www.maderfaker.com/es/club.html", "name": "Mader Faker", "note": "This is the actual name of this funky bar/pub/club"}}, {"type": "node", "id": 1517405735, "lat": 40.4131464, "lon": -3.6960507, "tags": {"amenity": "bar", "cuisine": "irish", "name": "The Harp", "old_name": "The Variety"}}, {"type": "node", "id": 1518261091, "lat": 40.4061026, "lon": -3.7532888, "tags": {"amenity": "bar", "name": "Monty"}}, {"type": "node", "id": 1535842823, "lat": 40.3960566, "lon": -3.7649153, "tags": {"amenity": "bar"}}, {"type": "node", "id": 1535886938, "lat": 40.4300911, "lon": -3.697607, "tags": {"addr:housenumber": "24", "addr:street": "Calle de Covarrubias", "alt_name": "Vaquita del Honky", "amenity": "bar", "name": "Honky Tonk"}}, {"type": "node", "id": 1541570695, "lat": 40.4205089, "lon": -3.6992036, "tags": {"amenity": "bar", "name": "El Casco Viejo", "source": "survey"}}, {"type": "node", "id": 1541956963, "lat": 40.4482711, "lon": -3.6899093, "tags": {"amenity": "bar", "name": "Habana 5 Bar"}}, {"type": "node", "id": 1553139954, "lat": 40.4062505, "lon": -3.7492638, "tags": {"amenity": "bar", "name": "Langa"}}, {"type": "node", "id": 1553139955, "lat": 40.4078039, "lon": -3.7437234, "tags": {"amenity": "bar", "name": "Las Cosas de Dos"}}, {"type": "node", "id": 1556708387, "lat": 40.4110987, "lon": -3.7027101, "tags": {"amenity": "bar", "name": "Marimba", "old_name": "Taque?"}}, {"type": "node", "id": 1556708422, "lat": 40.4096781, "lon": -3.7077827, "tags": {"addr:city": "Madrid", "addr:housenumber": "14", "addr:postcode": "28005", "addr:street": "Calle de las Amazonas", "amenity": "bar", "name": "Santurce", "wheelchair": "limited", "wheelchair:description": "Planta lisa, escalon 7 cm"}}, {"type": "node", "id": 1557975353, "lat": 40.3746067, "lon": -3.6198377, "tags": {"amenity": "bar", "name": "Alegr\u00eda"}}, {"type": "node", "id": 1557975366, "lat": 40.3746007, "lon": -3.6201543, "tags": {"amenity": "bar", "name": "Sport"}}, {"type": "node", "id": 1557975374, "lat": 40.3759226, "lon": -3.6204707, "tags": {"amenity": "bar", "name": "San Juli\u00e1n"}}, {"type": "node", "id": 1572572781, "lat": 40.4090313, "lon": -3.699883, "tags": {"name": "El Cutre de Lavapi\u00e9s", "amenity": "bar"}}, {"type": "node", "id": 1572572826, "lat": 40.4088323, "lon": -3.6989418, "tags": {"amenity": "bar", "name": "Bar San Lorenzo", "wheelchair": "limited"}}, {"type": "node", "id": 1595614343, "lat": 40.394147, "lon": -3.7577841, "tags": {"amenity": "bar", "name": "Bar Serena"}}, {"type": "node", "id": 1595614344, "lat": 40.3858017, "lon": -3.7592614, "tags": {"amenity": "bar", "name": "Bar de F\u00e9nix"}}, {"type": "node", "id": 1595614350, "lat": 40.3866802, "lon": -3.7582422, "tags": {"amenity": "bar", "name": "Terraza"}}, {"type": "node", "id": 1595614362, "lat": 40.3859498, "lon": -3.7632877, "tags": {"amenity": "bar", "layer": "1"}}, {"type": "node", "id": 1605617894, "lat": 40.438126, "lon": -3.6896922, "tags": {"amenity": "bar", "name": "El Uno de Molina"}}, {"type": "node", "id": 1618390528, "lat": 40.3985779, "lon": -3.7596143, "tags": {"name": "Eiffel", "amenity": "bar"}}, {"type": "node", "id": 1634750461, "lat": 40.4120586, "lon": -3.7119024, "tags": {"addr:city": "Madrid", "addr:housenumber": "4", "addr:postcode": "28005", "addr:street": "Calle de los Mancebos", "amenity": "bar", "name": "Off de La Latina"}}, {"type": "node", "id": 1634750481, "lat": 40.411533, "lon": -3.7100077, "tags": {"addr:city": "Madrid", "addr:housenumber": "10", "addr:postcode": "28005", "addr:street": "Plaza de la Cebada", "amenity": "bar", "contact:facebook": "https://www.facebook.com/pages/Taberna-La-Buha/428129333969165", "name": "Taberna La Buha"}}, {"type": "node", "id": 1642178045, "lat": 40.4238687, "lon": -3.7089975, "tags": {"amenity": "bar", "name": "Bar Paquito", "addr:street": "Calle del \u00c1lamo", "old_name": "Bar Reencuentro Latino", "wheelchair": "no", "wheelchair:description": "Escal\u00f3n de acceso mayor de 7 cm y puerta muy pesada para tirar", "addr:city": "Madrid", "addr:housenumber": "8", "addr:postcode": "28015"}}, {"type": "node", "id": 1645108307, "lat": 40.4125509, "lon": -3.7032669, "tags": {"amenity": "bar", "name": "C\u00f3mete el Mundo", "old_name": "La Tapa del Mundo"}}, {"type": "node", "id": 1651680279, "lat": 40.4061002, "lon": -3.7539168, "tags": {"amenity": "bar", "name": "Sidrer\u00eda La Vega"}}, {"type": "node", "id": 1651680301, "lat": 40.4074154, "lon": -3.7461911, "tags": {"amenity": "bar"}}, {"type": "node", "id": 1654251584, "lat": 40.4452324, "lon": -3.6977731, "tags": {"amenity": "bar", "name": "Madrid-Dakar"}}, {"type": "node", "id": 1669117644, "lat": 40.4071316, "lon": -3.6999115, "tags": {"amenity": "bar", "name": "La Mancha"}}, {"type": "node", "id": 1673070182, "lat": 40.4117164, "lon": -3.6746523, "tags": {"name": "Bar La Vuelta", "amenity": "bar", "wifi": "free"}}, {"type": "node", "id": 1673713704, "lat": 40.3970697, "lon": -3.7684256, "tags": {"amenity": "bar", "name": "Chiquit\u00edn"}}, {"type": "node", "id": 1675771405, "lat": 40.4108615, "lon": -3.7123661, "tags": {"name": "Taberna Almer\u00eda", "amenity": "bar", "addr:street": "Calle de las Aguas", "addr:postcode": "28005"}}, {"type": "node", "id": 1706354917, "lat": 40.412932, "lon": -3.719545, "tags": {"addr:postcode": "28005", "addr:street": "Calle de Juan Duque", "amenity": "bar", "name": "O'Breogan", "opening_hours": "Su-Th 10:00-01:00; Fr,Sa 10:00-02:30", "wifi": "no"}}, {"type": "node", "id": 1717732787, "lat": 40.4226539, "lon": -3.699278, "tags": {"addr:street": "Calle de Hortaleza", "addr:housenumber": "60", "amenity": "bar", "name": "Bar Hortaleza"}}, {"type": "node", "id": 1731420098, "lat": 40.4967486, "lon": -3.6901176, "tags": {"amenity": "bar", "name": "Bar Hermoso"}}, {"type": "node", "id": 1732744157, "lat": 40.4932192, "lon": -3.6548226, "tags": {"amenity": "bar", "name": "Doberman", "outdoor_seating": "yes", "addr:city": "Madrid", "addr:street": "Calle del Pr\u00edncipe Carlos"}}, {"type": "node", "id": 1738786261, "lat": 40.4223805, "lon": -3.6999707, "tags": {"addr:city": "Madrid", "addr:postcode": "28004", "addr:street": "Calle de P\u00e9rez Gald\u00f3s", "addr:subdistrict": "Justicia", "amenity": "bar", "contact:facebook": "https://es-es.facebook.com/pages/Cafeteria-Hawaii/235272912205", "name": "Bar Hawaii", "phone": "+34 915 23 14 08"}}, {"type": "node", "id": 1738790883, "lat": 40.4426945, "lon": -3.7018821, "tags": {"name": "Huete", "amenity": "bar"}}, {"type": "node", "id": 1740022612, "lat": 40.4223174, "lon": -3.6821225, "tags": {"amenity": "bar", "name": "Detroit", "wifi": "yes"}}, {"type": "node", "id": 1740065300, "lat": 40.4224648, "lon": -3.6775513, "tags": {"name": "Beef", "amenity": "bar"}}, {"type": "node", "id": 1751751626, "lat": 40.4142594, "lon": -3.6958188, "tags": {"name": "Cervantes", "amenity": "bar"}}, {"type": "node", "id": 1763008170, "lat": 40.3931717, "lon": -3.7516088, "tags": {"amenity": "bar", "name": "Bodega To\u00f1\u00edn", "old_name": "To\u00f1in"}}, {"type": "node", "id": 1830078492, "lat": 40.4281641, "lon": -3.6946791, "tags": {"amenity": "bar", "name": "El Santo"}}, {"type": "node", "id": 1889602596, "lat": 40.4152479, "lon": -3.6737306, "tags": {"amenity": "bar"}}, {"type": "node", "id": 1890102330, "lat": 40.4152551, "lon": -3.673572, "tags": {"amenity": "bar"}}, {"type": "node", "id": 1897074581, "lat": 40.3726098, "lon": -3.6209503, "tags": {"amenity": "bar", "name": "Los Chicos"}}, {"type": "node", "id": 1897077041, "lat": 40.3734517, "lon": -3.6226347, "tags": {"amenity": "bar", "name": "Bar Canalejas"}}, {"type": "node", "id": 1922036891, "lat": 40.4272704, "lon": -3.6660966, "tags": {"name": "Bel Canto", "amenity": "bar"}}, {"type": "node", "id": 1923626616, "lat": 40.4279774, "lon": -3.7003554, "tags": {"contact:facebook": "https://www.facebook.com/pages/Cherokee/118207424912601", "contact:phone": "+34 650 70 16 92", "name": "Cherokee", "addr:city": "Madrid", "addr:housenumber": "15", "addr:postcode": "28004", "addr:street": "Calle de Larra", "amenity": "bar"}}, {"type": "node", "id": 1925004172, "lat": 40.3854418, "lon": -3.715503, "tags": {"amenity": "bar", "name": "4 Faroles"}}, {"type": "node", "id": 1925005348, "lat": 40.3855707, "lon": -3.7152876, "tags": {"amenity": "bar", "name": "La bodega"}}, {"type": "node", "id": 1925010607, "lat": 40.3855586, "lon": -3.7147683, "tags": {"amenity": "bar", "name": "Bar Justi"}}, {"type": "node", "id": 1925035254, "lat": 40.3854676, "lon": -3.7143645, "tags": {"amenity": "bar", "name": "Lagartijo"}}, {"type": "node", "id": 1925036099, "lat": 40.3854617, "lon": -3.7138743, "tags": {"amenity": "bar", "name": "Los Cortitos"}}, {"type": "node", "id": 1927659378, "lat": 40.468705, "lon": -3.7229892, "tags": {"amenity": "bar", "name": "Los olmos"}}, {"type": "node", "id": 1927659402, "lat": 40.4703382, "lon": -3.722748, "tags": {"addr:city": "Madrid", "addr:housenumber": "54", "addr:postcode": "28035", "addr:street": "Avenida Juan Andr\u00e9s", "amenity": "bar", "name": "Bar Villamadrid"}}, {"type": "node", "id": 1930221237, "lat": 40.4660446, "lon": -3.7206816, "tags": {"addr:housenumber": "6", "addr:postcode": "28035", "addr:street": "Calle San Gerardo", "amenity": "bar", "name": "El Bodeg\u00f3n"}}, {"type": "node", "id": 1930221241, "lat": 40.4660127, "lon": -3.7205262, "tags": {"addr:housenumber": "6", "addr:postcode": "28035", "addr:street": "Calle San Gerardo", "amenity": "bar", "name": "El Rinc\u00f3n"}}, {"type": "node", "id": 1936429703, "lat": 40.4122199, "lon": -3.7270647, "tags": {"name": "La esquina de Eusebio", "addr:housenumber": "16", "addr:postcode": "28011", "addr:street": "Calle de Caramuel", "amenity": "bar"}}, {"type": "node", "id": 1947229204, "lat": 40.4650762, "lon": -3.7214633, "tags": {"amenity": "bar", "name": "Bar Marpil"}}, {"type": "node", "id": 1947229207, "lat": 40.4671891, "lon": -3.7218756, "tags": {"amenity": "bar", "name": "Bar Matins"}}, {"type": "node", "id": 1947229209, "lat": 40.4694307, "lon": -3.7215079, "tags": {"amenity": "bar", "name": "Bar Maype"}}, {"type": "node", "id": 1956394142, "lat": 40.4207921, "lon": -3.7041564, "tags": {"name": "El chiringuito", "amenity": "bar", "wifi": "free", "addr:housenumber": "3", "addr:street": "Traves\u00eda del Horno de la Mata"}}, {"type": "node", "id": 1958218210, "lat": 40.467077, "lon": -3.7241329, "tags": {"amenity": "bar", "name": "Bar El Piropo"}}, {"type": "node", "id": 1958218215, "lat": 40.4660934, "lon": -3.7190796, "tags": {"addr:housenumber": "14", "addr:street": "Calle de Antonio Machado", "amenity": "bar", "name": "Bar El Plane"}}, {"type": "node", "id": 1958218228, "lat": 40.4673212, "lon": -3.7172837, "tags": {"amenity": "bar", "name": "Bar El Gamo"}}, {"type": "node", "id": 1991780505, "lat": 40.3880427, "lon": -3.7655914, "tags": {"amenity": "bar", "name": "Chic Pepe's"}}, {"type": "node", "id": 1992864662, "lat": 40.4436664, "lon": -3.7142092, "tags": {"amenity": "bar", "name": "Trujal", "toilets:wheelchair": "no", "wheelchair": "limited"}}, {"type": "node", "id": 1992865015, "lat": 40.4434665, "lon": -3.7142437, "tags": {"amenity": "bar"}}, {"type": "node", "id": 2004749645, "lat": 40.3940213, "lon": -3.7569378, "tags": {"amenity": "bar", "name": "Bodega"}}, {"type": "node", "id": 2043171006, "lat": 40.4304023, "lon": -3.7165205, "tags": {"amenity": "bar", "designation": "Bar", "name": "Los Bocadillos"}}, {"type": "node", "id": 2046224575, "lat": 40.419786, "lon": -3.7069476, "tags": {"addr:housenumber": "38", "amenity": "bar", "old_name": "All U Can Eat", "name": "Cervecer\u00eda Preciado 38", "addr:street": "Calle Preciados", "addr:postcode": "28013", "addr:city": "Madrid"}}, {"type": "node", "id": 2063174233, "lat": 40.4555272, "lon": -3.7035127, "tags": {"amenity": "bar", "name": "Mes\u00f3n Los Aros"}}, {"type": "node", "id": 2068640060, "lat": 40.4010055, "lon": -3.7505551, "tags": {"amenity": "bar", "name": "El Pintxito"}}, {"type": "node", "id": 2072687163, "lat": 40.4262987, "lon": -3.6966342, "tags": {"website": "www.bulevarmadridnocrisis.com", "source": "survey", "addr:city": "Madrid", "addr:housenumber": "2", "addr:postcode": "28004", "addr:street": "Calle de Santa Teresa", "addr:subdistrict": "Justicia", "amenity": "bar", "name": "Bulevar"}}, {"type": "node", "id": 2077053390, "lat": 40.4112999, "lon": -3.7140551, "tags": {"amenity": "bar", "name": "Bar Pascual"}}, {"type": "node", "id": 2077053458, "lat": 40.4120853, "lon": -3.7118215, "tags": {"addr:city": "Madrid", "addr:housenumber": "2", "addr:postcode": "28005", "addr:street": "Calle de los Mancebos", "amenity": "bar", "contact:facebook": "https://es-es.facebook.com/elbombonmadrid/", "contact:phone": "+34 910 85 46 41", "name": "El Bomb\u00f3n", "old_name": "Stork"}}, {"type": "node", "id": 2082659469, "lat": 40.4565613, "lon": -3.7039051, "tags": {"wheelchair": "no", "name": "809", "addr:street": "Calle de Berruguete", "amenity": "bar"}}, {"type": "node", "id": 2100652803, "lat": 40.3626869, "lon": -3.7579791, "tags": {"name": "La Peseta", "amenity": "bar"}}, {"type": "node", "id": 2100659984, "lat": 40.3613605, "lon": -3.757743, "tags": {"name": "Tapas La Tabla", "amenity": "bar"}}, {"type": "node", "id": 2100659985, "lat": 40.3622577, "lon": -3.7594489, "tags": {"name": "V\u00eda Libre", "amenity": "bar"}}, {"type": "node", "id": 2100673947, "lat": 40.3618919, "lon": -3.7527112, "tags": {"amenity": "bar", "name": "Mejor Imposible", "old_name": "Meihua"}}, {"type": "node", "id": 2100678653, "lat": 40.3622189, "lon": -3.749286, "tags": {"amenity": "bar", "name": "Casa Paola"}}, {"type": "node", "id": 2121950920, "lat": 40.4231149, "lon": -3.7044312, "tags": {"source": "survey", "name": "ADC", "amenity": "bar"}}, {"type": "node", "id": 2144489288, "lat": 40.398528, "lon": -3.7674717, "tags": {"amenity": "bar", "name": "Bar Navas"}}, {"type": "node", "id": 2144489293, "lat": 40.3981337, "lon": -3.7673032, "tags": {"amenity": "bar", "name": "Bar Rafael"}}, {"type": "node", "id": 2144489346, "lat": 40.3848161, "lon": -3.7825395, "tags": {"amenity": "bar"}}, {"type": "node", "id": 2182343814, "lat": 40.44896, "lon": -3.6083112, "tags": {"name:en": "Empanada", "amenity": "bar", "name": "El Gallo"}}, {"type": "node", "id": 2202011265, "lat": 40.4553481, "lon": -3.6931601, "tags": {"amenity": "bar", "name": "Cervecer\u00eda La Sure\u00f1a"}}, {"type": "node", "id": 2203440311, "lat": 40.3944085, "lon": -3.7532099, "tags": {"amenity": "bar", "name": "Boricua"}}, {"type": "node", "id": 2239998402, "lat": 40.4219581, "lon": -3.6940909, "tags": {"wheelchair": "no", "contact:phone": "+34 915 23 77 18", "contact:website": "https://www.lasendadexiquena.es/", "name": "La Senda de Xiquena", "source": "survey", "addr:city": "Madrid", "addr:housenumber": "2", "addr:postcode": "28004", "addr:street": "Calle del Conde de Xiquena", "amenity": "bar"}}, {"type": "node", "id": 2239998409, "lat": 40.4218481, "lon": -3.6955709, "tags": {"amenity": "bar", "name": "Rocafr\u00eda", "source": "survey"}}, {"type": "node", "id": 2261299371, "lat": 40.4141959, "lon": -3.7018671, "tags": {"addr:housenumber": "10", "addr:street": "Plaza del \u00c1ngel", "amenity": "bar", "name": "Caf\u00e9 Central", "source": "+34 913 69 41 43", "website": "https://www.cafecentralmadrid.com/"}}, {"type": "node", "id": 2261312784, "lat": 40.415455, "lon": -3.700385, "tags": {"amenity": "bar", "addr:street": "Calle del Pr\u00edncipe", "addr:housenumber": "16", "name": "Bar de la Comedia", "source": "+34 915 22 30 32 \u200e"}}, {"type": "node", "id": 2261314940, "lat": 40.4106999, "lon": -3.6978462, "tags": {"source": "+34 915 27 87 60", "name": "Vin\u00edcola Mentridana", "amenity": "bar", "addr:housenumber": "9", "addr:street": "Calle de San Eugenio"}}, {"type": "node", "id": 2262030106, "lat": 40.4237544, "lon": -3.6708826, "tags": {"amenity": "bar", "name": "Taberna Basarri", "source": "survey"}}, {"type": "node", "id": 2294985270, "lat": 40.4105514, "lon": -3.7080953, "tags": {"amenity": "bar", "craft_beer": "yes", "wheelchair": "no", "name": "La Tienda de la Cerveza", "addr:street": "Calle de la Ruda", "opening_hours": "Tu-Fr 11:00-14:00,17:00-21:00; Sa,Su 10:30-14:30", "phone": "+34 91 014 83 39", "shop": "alcohol", "website": "http://www.latiendadecerveza.es/", "addr:city": "Madrid", "addr:country": "ES", "addr:housenumber": "12", "addr:postcode": "28005"}}, {"type": "node", "id": 2297581601, "lat": 40.4054177, "lon": -3.6974199, "tags": {"amenity": "bar", "name": "El 89", "source": "survey"}}, {"type": "node", "id": 2304318302, "lat": 40.4282822, "lon": -3.7080809, "tags": {"addr:city": "Madrid", "addr:housenumber": "15", "addr:postcode": "28015", "addr:street": "Calle de San Hermenegildo", "amenity": "bar", "name": "Mar\u00eda Bonita Taco Bar"}}, {"type": "node", "id": 2316161828, "lat": 40.3978147, "lon": -3.7712813, "tags": {"amenity": "bar", "name": "Cervecer\u00eda Garc\u00eda"}}, {"type": "node", "id": 2334279953, "lat": 40.3980249, "lon": -3.7680269, "tags": {"amenity": "bar", "name": "Hierbabuena"}}, {"type": "node", "id": 2334279954, "lat": 40.3975514, "lon": -3.7716352, "tags": {"amenity": "bar", "name": "La Barra Panda"}}, {"type": "node", "id": 2340330622, "lat": 40.4788287, "lon": -3.6978655, "tags": {"amenity": "bar", "name": "Felgar"}}, {"type": "node", "id": 2352895287, "lat": 40.3761079, "lon": -3.7522784, "tags": {"amenity": "bar", "old_name": "El Mora\u00edto", "name": "Los Fern\u00e1ndes"}}, {"type": "node", "id": 2357618842, "lat": 40.410931, "lon": -3.6943629, "tags": {"amenity": "bar", "name": "Marrakech", "wheelchair": "limited"}}, {"type": "node", "id": 2357765924, "lat": 40.412526, "lon": -3.6960781}, {"type": "node", "id": 2357767944, "lat": 40.4127704, "lon": -3.6963795, "tags": {"amenity": "bar", "name": "Donde Chelo", "old_name": "Monam\u00ed", "wheelchair": "limited"}}, {"type": "node", "id": 2360828616, "lat": 40.4125533, "lon": -3.6937344}, {"type": "node", "id": 2360828619, "lat": 40.4124675, "lon": -3.6939}, {"type": "node", "id": 2383206293, "lat": 40.4257801, "lon": -3.6959139, "tags": {"addr:city": "Madrid", "addr:housenumber": "8", "addr:postcode": "28004", "addr:street": "Calle de Santa Teresa", "addr:subdistrict": "Justicia", "amenity": "bar", "name": "Barbara Ann", "old_name": "Chatarra", "website": "https://barbaraann.es/"}}, {"type": "node", "id": 2392696780, "lat": 40.4560725, "lon": -3.6806509, "tags": {"amenity": "bar", "name": "Cafeter\u00eda Santill\u00e1n"}}, {"type": "node", "id": 2392696948, "lat": 40.4560031, "lon": -3.680624, "tags": {"amenity": "bar", "name": "Potos"}}, {"type": "node", "id": 2393597025, "lat": 40.4552826, "lon": -3.6807957, "tags": {"amenity": "bar"}}, {"type": "node", "id": 2393597208, "lat": 40.4551217, "lon": -3.6792346, "tags": {"amenity": "bar", "name": "Casinillo II"}}, {"type": "node", "id": 2394515080, "lat": 40.3991522, "lon": -3.6596353, "tags": {"addr:street": "Calle del Camino de Valderrivas", "outdoor_seating": "yes", "name": "El Paso", "amenity": "bar", "addr:housenumber": "93"}}, {"type": "node", "id": 2395066543, "lat": 40.3986357, "lon": -3.6587748, "tags": {"addr:street": "Calle del Camino de Valderrivas", "name": "Lord Ship", "addr:housenumber": "99", "amenity": "bar"}}, {"type": "node", "id": 2430572373, "lat": 40.4107399, "lon": -3.7306952, "tags": {"amenity": "bar", "cuisine": "peruvian"}}, {"type": "node", "id": 2432426217, "lat": 40.4684174, "lon": -3.5799021, "tags": {"amenity": "bar"}}, {"type": "node", "id": 2432426220, "lat": 40.4687133, "lon": -3.5796312, "tags": {"amenity": "bar"}}, {"type": "node", "id": 2437723822, "lat": 40.4154628, "lon": -3.6995579, "tags": {"addr:city": "Madrid", "addr:housenumber": "15", "addr:postcode": "28014", "addr:street": "Calle de Echegaray", "amenity": "bar", "contact:email": "contacto@cardamomo.es", "contact:phone": "+34 918 051 038", "name": "Cardamomo", "website": "http://cardamomo.es/"}}, {"type": "node", "id": 2443440962, "lat": 40.5034829, "lon": -3.70838, "tags": {"amenity": "bar"}}, {"type": "node", "id": 2461314623, "lat": 40.4079502, "lon": -3.6970032, "tags": {"amenity": "bar", "name": "El Pedal", "addr:street": "Calle de Argumosa", "addr:postcode": "28012", "addr:housenumber": "33", "addr:city": "Madrid"}}, {"type": "node", "id": 2470201486, "lat": 40.4730179, "lon": -3.7148937}, {"type": "node", "id": 2470201487, "lat": 40.4731262, "lon": -3.7149007}, {"type": "node", "id": 2470201488, "lat": 40.4731318, "lon": -3.7147489}, {"type": "node", "id": 2470201489, "lat": 40.4730235, "lon": -3.714742}, {"type": "node", "id": 2475150036, "lat": 40.4082985, "lon": -3.7130604, "tags": {"amenity": "bar", "name": "Ribadeza"}}, {"type": "node", "id": 2475150041, "lat": 40.4060918, "lon": -3.7113974, "tags": {"amenity": "bar", "smoking": "outside", "phone": "+34 914 73 82 70", "outdoor_seating": "yes", "opening_hours": "Mo-Su 10:30-23:00; Fr 10:30-24:00; Sa 12:30-24:00", "addr:city": "Madrid", "addr:housenumber": "3", "addr:postcode": "28005", "addr:street": "Glorieta Puerta de Toledo", "brewery": "yes", "name": "100 Montaditos"}}, {"type": "node", "id": 2475150042, "lat": 40.4058987, "lon": -3.7113507, "tags": {"amenity": "bar", "name": "Salser\u00eda II"}}, {"type": "node", "id": 2477470246, "lat": 40.3721055, "lon": -3.6119759, "tags": {"addr:city": "Madrid", "addr:housenumber": "35", "addr:postcode": "28051", "addr:street": "Avenida de La Gavia", "amenity": "bar", "name": "Sidney", "opening_hours": "Tu-Su 12:00-2:00"}}, {"type": "node", "id": 2477470265, "lat": 40.3710143, "lon": -3.5983556, "tags": {"amenity": "bar", "name": "Cervecer\u00eda La Sure\u00f1a"}}, {"type": "node", "id": 2477700587, "lat": 40.4225777, "lon": -3.7063936, "tags": {"addr:city": "Madrid", "addr:housenumber": "24", "addr:postcode": "28015", "addr:street": "Calle de la Luna", "amenity": "bar", "old_name": "De Calle", "old_name_1": "Amor de calle", "old_name_2": "Crack"}}, {"type": "node", "id": 2495089182, "lat": 40.4569681, "lon": -3.7037572, "tags": {"amenity": "bar", "name": "A Veira Do Mar"}}, {"type": "node", "id": 2495089188, "lat": 40.4568599, "lon": -3.7034104, "tags": {"amenity": "bar", "name": "Riveira III", "wheelchair": "no"}}, {"type": "node", "id": 2514527325, "lat": 40.3711246, "lon": -3.7479069, "tags": {"amenity": "bar"}}, {"type": "node", "id": 2546777610, "lat": 40.4111209, "lon": -3.6986832, "tags": {"wheelchair": "limited", "addr:city": "Madrid", "addr:postcode": "28012", "addr:street": "Calle de Santa Isabel", "amenity": "bar", "name": "Bar el H\u00f3rreo"}}, {"type": "node", "id": 2552482048, "lat": 40.412697, "lon": -3.69464}, {"type": "node", "id": 2567586792, "lat": 40.4094021, "lon": -3.712126, "tags": {"amenity": "bar", "contact:phone": "+34 637051518", "name": "Taberna Calatrava, 22", "addr:street": "Calle Calatrava", "addr:housenumber": "22", "addr:city": "Madrid"}}, {"type": "node", "id": 2568684627, "lat": 40.3445363, "lon": -3.7128193, "tags": {"name": "La Morcilla", "amenity": "bar"}}, {"type": "node", "id": 2569444821, "lat": 40.4182665, "lon": -3.6963625, "tags": {"phone": "+34 911 234 567", "website": "http://www.azoteadelcirculo.com", "addr:city": "Madrid", "addr:country": "ES", "addr:housenumber": "42", "addr:postcode": "28014", "addr:street": "Calle de Alcal\u00e1", "amenity": "bar", "name": "Azotea de C\u00edrculo de Bellas Artes", "name:en": "Roof bar"}}, {"type": "node", "id": 2569444823, "lat": 40.4153727, "lon": -3.709051, "tags": {"amenity": "bar", "name": "El yantar de ayer"}}, {"type": "node", "id": 2582180382, "lat": 40.4224499, "lon": -3.7061901, "tags": {"amenity": "bar", "contact:facebook": "https://es-es.facebook.com/MikkellerBarMadrid/?ref=page_internal", "contact:website": "https://mikkeller.com/", "wheelchair": "no", "old_name": "La luna 22 gastrobar", "addr:street": "Calle de la Luna", "name": "Mikkeller", "addr:postcode": "28004", "addr:housenumber": "22", "addr:city": "Madrid"}}, {"type": "node", "id": 2583605060, "lat": 40.4214532, "lon": -3.7048542, "tags": {"amenity": "bar", "phone": "+34 91 532 55 64", "website": "https://www.gymage.es/?id=terrace"}}, {"type": "node", "id": 2583954354, "lat": 40.4243081, "lon": -3.7036592, "tags": {"addr:city": "Madrid", "addr:housenumber": "37", "addr:postcode": "28004", "addr:street": "Calle de la Madera", "amenity": "bar", "food": "yes", "name": "Casa Julio", "opening_hours": "Mo-Sa 13:00-15:30, 18:30-23:00", "phone": "+34 915 227 274", "website": "http://www.barcasajulio.es/"}}, {"type": "node", "id": 2583954711, "lat": 40.4238086, "lon": -3.7052928, "tags": {"amenity": "bar", "name": "Cafe\u00edna", "addr:street": "Calle del Pez", "addr:postcode": "28004", "addr:city": "Madrid", "addr:housenumber": "18"}}, {"type": "node", "id": 2583979989, "lat": 40.4266363, "lon": -3.7036349, "tags": {"addr:city": "Madrid", "addr:housenumber": "12", "addr:postcode": "28004", "addr:street": "Calle de San Andr\u00e9s", "amenity": "bar", "name": "Pepe Botella", "phone": "+34 91 522 43 09", "website": "http://www.cafepepebotella.es/es/", "wheelchair": "no", "wheelchair:description": "Escal\u00f3n muy alto"}}, {"type": "node", "id": 2584073568, "lat": 40.4062821, "lon": -3.7014976, "tags": {"addr:state": "ES", "amenity": "bar", "name": "Donde da la vuelta el viento", "addr:street": "Calle del Mes\u00f3n de Paredes", "addr:postcode": "28012", "phone": "+34 91 017 7240", "website": "http://www.dondedalavueltaelviento.com", "addr:housenumber": "81", "addr:city": "Madrid", "addr:country": "ES"}}, {"type": "node", "id": 2584983852, "lat": 40.4242529, "lon": -3.7093624, "tags": {"addr:city": "Madrid", "addr:housenumber": "6", "addr:postcode": "28015", "addr:street": "Calle de los Reyes", "amenity": "bar", "name": "Cervecer\u00eda History"}}, {"type": "node", "id": 2584988112, "lat": 40.4242292, "lon": -3.7094171, "tags": {"addr:city": "Madrid", "addr:housenumber": "6", "addr:postcode": "28015", "addr:street": "Calle de los Reyes", "amenity": "bar", "contact:facebook": "https://www.facebook.com/pages/Rinc%C3%B3n-de-La-Habana/445248112183005", "name": "El Rinc\u00f3n de La Habana", "wheelchair": "no", "wheelchair:description": "Escal\u00f3n a la entrada"}}, {"type": "node", "id": 2585141470, "lat": 40.4285446, "lon": -3.7032793, "tags": {"addr:city": "Madrid", "addr:housenumber": "11", "addr:postcode": "28004", "addr:street": "Calle de Manuela Malasa\u00f1a", "amenity": "bar", "contact:facebook": "https://www.facebook.com/superchulomadrid/", "contact:phone": "+34 910 23 27 06", "contact:website": "http://www.superchulomadrid.com/", "name": "Superchulo"}}, {"type": "node", "id": 2585147466, "lat": 40.4237792, "lon": -3.7017744, "tags": {"wikidata": "Q30070624", "wheelchair": "limited", "addr:city": "Madrid", "addr:country": "ES", "addr:housenumber": "13", "addr:postcode": "28004", "addr:street": "Calle de Col\u00f3n", "amenity": "bar", "food": "yes", "name": "Bodega de la Ardosa", "opening_hours": "Mo-Fr 08:30-02:00; Sa-Su 11:45-02:30", "phone": "+34 915 214 979", "website": "http://www.laardosa.es/"}}, {"type": "node", "id": 2587660429, "lat": 40.4049626, "lon": -3.7077813, "tags": {"amenity": "bar", "name": "El Ideal"}}, {"type": "node", "id": 2587660433, "lat": 40.407892, "lon": -3.7127458, "tags": {"amenity": "bar", "name": "Mes\u00f3n O'agarimo"}}, {"type": "node", "id": 2597132609, "lat": 40.3949243, "lon": -3.7000665, "tags": {"amenity": "bar", "name": "Fernando Poo"}}, {"type": "node", "id": 2600826381, "lat": 40.4409432, "lon": -3.7073044, "tags": {"addr:housenumber": "40", "addr:street": "Avenida de Filipinas", "amenity": "bar", "name": "Kubo King"}}, {"type": "node", "id": 2606329602, "lat": 40.4322128, "lon": -3.6745577, "tags": {"addr:city": "Madrid", "addr:postcode": "28039", "addr:street": "Calle de Berruguete", "amenity": "bar", "name": "Bulevar", "operator": "Magizan Bulevar, SL"}}, {"type": "node", "id": 2606329604, "lat": 40.4325385, "lon": -3.6746592, "tags": {"name": "Cofrad\u00eda M.A.D", "amenity": "bar"}}, {"type": "node", "id": 2606329607, "lat": 40.4329886, "lon": -3.6747868, "tags": {"amenity": "bar", "name": "El Duende"}}, {"type": "node", "id": 2614530657, "lat": 40.4288217, "lon": -3.7046677, "tags": {"addr:city": "Madrid", "addr:housenumber": "22", "addr:postcode": "28004", "addr:street": "Calle de Manuela Malasa\u00f1a", "amenity": "bar", "contact:facebook": "https://www.facebook.com/lamejorflorbar/info?tab=overview", "name": "La Mejor Flor", "phone": "+34 912 82 09 70"}}, {"type": "node", "id": 2614532188, "lat": 40.4288108, "lon": -3.7045946, "tags": {"amenity": "bar", "addr:street": "Calle de Manuela Malasa\u00f1a", "contact:facebook": "https://es-es.facebook.com/irrealemadrid", "addr:postcode": "28004", "name": "Irreale", "addr:housenumber": "20", "addr:city": "Madrid", "old_name": "Ave Fenix", "wikidata": "Q57446346", "phone": "+34 917 52 83 74"}}, {"type": "node", "id": 2614536500, "lat": 40.4288361, "lon": -3.7047263, "tags": {"addr:city": "Madrid", "addr:housenumber": "22", "addr:postcode": "28004", "addr:street": "Calle de Manuela Malasa\u00f1a", "amenity": "bar", "name": "Bar Amor", "phone": "+34 915 94 48 29"}}, {"type": "node", "id": 2621566573, "lat": 40.4195617, "lon": -3.6204087, "tags": {"amenity": "bar"}}, {"type": "node", "id": 2621636925, "lat": 40.4251923, "lon": -3.6811941, "tags": {"source": "survey", "amenity": "bar", "name": "La Casa del Abuelo"}}, {"type": "node", "id": 2622369617, "lat": 40.4097262, "lon": -3.6466832, "tags": {"amenity": "bar", "name": "Bar Mariaga"}}, {"type": "node", "id": 2627117464, "lat": 40.3960878, "lon": -3.7624732, "tags": {"addr:city": "Madrid", "addr:housename": "Bar Ibiza", "addr:housenumber": "69", "addr:postcode": "28024", "addr:street": "Calle de Escalona", "amenity": "bar", "name": "Bar Ibiza"}}, {"type": "node", "id": 2627203603, "lat": 40.4205066, "lon": -3.6988299, "tags": {"addr:city": "Madrid", "addr:housenumber": "13", "addr:postcode": "28004", "addr:street": "Calle de las Infantas", "amenity": "bar", "contact:website": "http://maskcopas.com/", "name": "+ K Copas", "old_name": "Pizzer\u00eda Casavostra"}}, {"type": "node", "id": 2629831948, "lat": 40.4242713, "lon": -3.7062591, "tags": {"addr:city": "Madrid", "addr:housenumber": "1", "addr:postcode": "28004", "addr:street": "Calle de Minas", "amenity": "bar", "contact:facebook": "https://es-es.facebook.com/picnicmadrid", "email": "barpicnic@gmail.com", "name": "Picnic", "phone": "+34 915 21 08 89"}}, {"type": "node", "id": 2630111358, "lat": 40.4243541, "lon": -3.7071179, "tags": {"wheelchair": "no", "amenity": "bar", "name": "Grama Arts Club", "addr:street": "Calle del Pez", "addr:postcode": "28004", "addr:housenumber": "40", "old_name": "Transsiberian", "old_name_1": "El Pez El\u00e9ctrico", "wheelchair:description": "Escalon", "addr:city": "Madrid"}}, {"type": "node", "id": 2631415858, "lat": 40.4241673, "lon": -3.7065672, "tags": {"phone": "+34 609 53 11 51", "opening_hours": "Mo-Th 15:30-02:00; Fr-Sa 15:30-02:30; Su 15:30-22:30", "addr:city": "Madrid", "addr:housenumber": "27", "addr:postcode": "28004", "addr:street": "Calle del Pez", "amenity": "bar", "contact:facebook": "https://es-es.facebook.com/1862DryBar", "name": "1862 Dry Bar"}}, {"type": "node", "id": 2632228958, "lat": 40.4233221, "lon": -3.707376, "tags": {"amenity": "bar", "old_name": "Piccolo Angolo", "name": "Aqu\u00ed Santo\u00f1a", "addr:city": "Madrid", "addr:housenumber": "28", "addr:postcode": "28015", "addr:street": "Calle de San Bernardo"}}, {"type": "node", "id": 2639635434, "lat": 40.4257284, "lon": -3.7088169, "tags": {"amenity": "bar", "email": "info@theplacemadrid.com", "name": "The Place", "addr:street": "Calle de Noviciado", "phone": "+34 915 238 253", "website": "http://www.theplacemadrid.com/", "addr:city": "Madrid", "addr:housenumber": "16", "addr:postcode": "28015"}}, {"type": "node", "id": 2639642119, "lat": 40.3819233, "lon": -3.7650042, "tags": {"addr:street": "Calle Sangui\u00f1o", "addr:city": "Madrid", "addr:housenumber": "6", "addr:postcode": "28044", "amenity": "bar", "name": "Cervecer\u00eda Bremen"}}, {"type": "node", "id": 2642152849, "lat": 40.4259668, "lon": -3.6743929, "tags": {"name": "Baretu", "addr:city": "Madrid", "addr:housenumber": "101", "addr:postcode": "28006", "addr:street": "Calle de Hermosilla", "amenity": "bar"}}, {"type": "node", "id": 2642163107, "lat": 40.426074, "lon": -3.6761618, "tags": {"wheelchair": "no", "addr:city": "Madrid", "addr:housenumber": "91", "addr:postcode": "28001", "addr:street": "Calle de Hermosilla", "amenity": "bar", "name": "Casa Picote", "old_name": "Bar Torrijos"}}, {"type": "node", "id": 2643887902, "lat": 40.418605, "lon": -3.7075016, "tags": {"addr:city": "Madrid", "addr:housenumber": "7", "addr:postcode": "28013", "addr:street": "Calle de los Trujillos", "amenity": "bar", "lgbtq": "primary", "name": "Strong", "opening_hours": "Mo-Fr 23:30-06:00; Sa-Su 23:30-06:00", "phone": "+34915415415", "website": "http://www.strong-center.com/Strong.html"}}, {"type": "node", "id": 2643893669, "lat": 40.4179885, "lon": -3.7074756, "tags": {"addr:street": "Calle de las Hileras", "name": "La Canela", "addr:postcode": "28013", "amenity": "bar", "contact:facebook": "https://es-es.facebook.com/pages/La-Canela-Caf%C3%A9-Bar/135455503177789", "addr:housenumber": "19", "opening_hours": "Mo-Su 16:00-02:00", "phone": "+34 915 59 55 32", "addr:city": "Madrid"}}, {"type": "node", "id": 2643893685, "lat": 40.4176751, "lon": -3.7076269, "tags": {"addr:city": "Madrid", "addr:housenumber": "14", "addr:postcode": "28013", "addr:street": "Calle de las Hileras", "amenity": "bar", "email": "discosyunke@gmail.com", "name": "La Coquette", "phone": "+34 915 210 915"}}, {"type": "node", "id": 2643911157, "lat": 40.4172132, "lon": -3.7080127, "tags": {"name": "Caf\u00e9 Iru\u00f1a", "amenity": "bar", "addr:city": "Madrid", "addr:housenumber": "8", "addr:postcode": "28013", "addr:street": "Calle de las Hileras"}}, {"type": "node", "id": 2645525103, "lat": 40.4220418, "lon": -3.7056092, "tags": {"addr:city": "Madrid", "addr:housenumber": "10", "addr:postcode": "28004", "addr:street": "Calle de la Luna", "amenity": "bar", "name": "Baraka"}}, {"type": "node", "id": 2645855662, "lat": 40.4249394, "lon": -3.7067797, "tags": {"addr:city": "Madrid", "addr:housenumber": "7", "addr:postcode": "28004", "addr:street": "Calle de Pozas", "amenity": "bar", "contact:facebook": "https://es-es.facebook.com/cazadorbar", "name": "Cazador", "opening_hours": "Mo-Th 17:00-02:00; Fr-Sa 17:00-02:30; Su 12:00-01:00"}}, {"type": "node", "id": 2645855663, "lat": 40.4245596, "lon": -3.706785, "tags": {"addr:city": "Madrid", "addr:housenumber": "3", "addr:postcode": "28004", "addr:street": "Calle de Pozas", "amenity": "bar", "name": "Ferrero", "wheelchair": "no"}}, {"type": "node", "id": 2645863025, "lat": 40.4251735, "lon": -3.7046318, "tags": {"amenity": "bar", "name": "Piratas de la Mala Sa\u00f1a", "old_name": "Chankete Ha Muerto", "addr:street": "Calle del Tesoro", "addr:city": "Madrid", "addr:housenumber": "6", "addr:postcode": "28004"}}, {"type": "node", "id": 2645867632, "lat": 40.4256268, "lon": -3.7038123, "tags": {"addr:city": "Madrid", "addr:housenumber": "4", "addr:postcode": "28004", "addr:street": "Calle de San Andr\u00e9s", "amenity": "bar", "name": "Casa Camacho"}}, {"type": "node", "id": 2649377343, "lat": 40.4103086, "lon": -3.7017065, "tags": {"addr:city": "Madrid", "addr:housenumber": "6", "addr:postcode": "28012", "addr:street": "Calle de San Carlos", "amenity": "bar", "name": "Bodegas Lo M\u00e1ximo"}}, {"type": "node", "id": 2651748585, "lat": 40.4211294, "lon": -3.7054495, "tags": {"wheelchair:description": "Sin escalones (interior desconocido). Puerta de 87 cm", "addr:city": "Madrid", "addr:housenumber": "4", "addr:postcode": "28004", "addr:street": "Calle de los Tudescos", "amenity": "bar", "name": "Next Level", "old_name": "Mind The Gap", "old_name_1": "Changes", "old_name_2": "2 Cero 5", "wheelchair": "limited"}}, {"type": "node", "id": 2651989201, "lat": 40.4348255, "lon": -3.7017445, "tags": {"addr:city": "Madrid", "addr:housenumber": "8", "addr:postcode": "28010", "addr:street": "Calle General \u00c1lvarez de Castro", "amenity": "bar", "cuisine": "tapas", "name": "Taberna La Mina", "opening_hours": "Tu-Su 11:00-01:30"}}, {"type": "node", "id": 2653722452, "lat": 40.4247563, "lon": -3.7073338, "tags": {"wheelchair:description": "escalon >7cms", "wheelchair": "no", "name": "Alejandro RJ", "amenity": "bar", "addr:street": "Calle de San Bernardo", "addr:postcode": "28015", "addr:city": "Madrid", "addr:housenumber": "46"}}, {"type": "node", "id": 2653850820, "lat": 40.4262041, "lon": -3.707054, "tags": {"amenity": "bar", "name": "La Gruta", "addr:street": "Calle de San Bernardo", "addr:postcode": "28015", "addr:housenumber": "59", "addr:city": "Madrid"}}, {"type": "node", "id": 2653869273, "lat": 40.4271325, "lon": -3.7065782, "tags": {"phone": "+34 910 81 29 79", "name": "La Pasa", "addr:city": "Madrid", "addr:housenumber": "73", "addr:postcode": "28015", "addr:street": "Calle de San Bernardo", "amenity": "bar", "contact:facebook": "https://es-es.facebook.com/LaPasaBar", "email": "LAPASAMALANA@GMAIL.COM"}}, {"type": "node", "id": 2656033535, "lat": 40.4164558, "lon": -3.7077761, "tags": {"addr:city": "Madrid", "addr:housenumber": "5", "addr:postcode": "28013", "addr:street": "Calle de Bordadores", "amenity": "bar", "name": "La Panoya"}}, {"type": "node", "id": 2656038561, "lat": 40.4165263, "lon": -3.7075762, "tags": {"addr:city": "Madrid", "addr:housenumber": "4", "addr:postcode": "28013", "addr:street": "Calle de Bordadores", "amenity": "bar", "name": "Lion"}}, {"type": "node", "id": 2656069336, "lat": 40.4151284, "lon": -3.7063631, "tags": {"addr:city": "Madrid", "addr:housenumber": "4", "addr:postcode": "28012", "addr:street": "Calle de Gerona", "amenity": "bar", "name": "Plaza Mayor"}}, {"type": "node", "id": 2661123393, "lat": 40.4237733, "lon": -3.7016495, "tags": {"wheelchair": "limited", "addr:city": "Madrid", "addr:country": "ES", "addr:housenumber": "11", "addr:postcode": "28004", "addr:street": "Calle de Col\u00f3n", "amenity": "bar", "name": "Casa Baranda", "old_name": "La Huida"}}, {"type": "node", "id": 2661249247, "lat": 40.3916381, "lon": -3.7104401, "tags": {"addr:street": "Calle del Marques de Jura Real", "amenity": "bar", "addr:city": "Madrid", "addr:housename": "Bar Juvi", "addr:housenumber": "6", "addr:postcode": "28019", "name": "Bar Juvi"}}, {"type": "node", "id": 2663023166, "lat": 40.425255, "lon": -3.7035416, "tags": {"amenity": "bar", "email": "info@vacacionesbar.com", "name": "Vacaciones", "addr:street": "Calle del Esp\u00edritu Santo", "phone": "+34 911 30 41 25", "website": "http://www.vacacionesbar.com/", "addr:postcode": "28004", "addr:housenumber": "15", "addr:city": "Madrid"}}, {"type": "node", "id": 2664863071, "lat": 40.4376823, "lon": -3.6809517, "tags": {"amenity": "bar", "name": "Nassau Madrid", "phone": "+34 696 257 763", "website": "http://www.nassaumadrid.com/", "addr:city": "Madrid", "addr:housenumber": "37", "addr:postcode": "28006", "addr:street": "Calle de Mar\u00eda de Molina"}}, {"type": "node", "id": 2665127467, "lat": 40.4222684, "lon": -3.7039756, "tags": {"addr:city": "Madrid", "addr:housenumber": "15", "addr:postcode": "28004", "addr:street": "Calle de la Puebla", "amenity": "bar", "contact:facebook": "https://es-la.facebook.com/elperroclub", "name": "El Perro de la Parte de Atr\u00e1s del Coche", "phone": "+34 618 78 30 54"}}, {"type": "node", "id": 2667563698, "lat": 40.4271764, "lon": -3.7095911, "tags": {"addr:city": "Madrid", "addr:housenumber": "25", "addr:postcode": "28015", "addr:street": "Calle de Amaniel", "amenity": "bar", "name": "El Cangrejero", "wikidata": "Q57446846"}}, {"type": "node", "id": 2668366791, "lat": 40.4296555, "lon": -3.7079366, "tags": {"name": "Cervecer\u00eda Rold\u00e1n", "addr:city": "Madrid", "addr:housenumber": "5", "addr:postcode": "28015", "addr:street": "Calle de Alberto Aguilera", "amenity": "bar"}}, {"type": "node", "id": 2668366795, "lat": 40.4303321, "lon": -3.7114246, "tags": {"website": "http://grupokaligulas.es", "addr:city": "Madrid", "addr:housenumber": "36", "addr:postcode": "28015", "addr:street": "Calle de Alberto Aguilera", "amenity": "bar", "name": "Kaligula's"}}, {"type": "node", "id": 2668403174, "lat": 40.4358906, "lon": -3.7144082, "tags": {"addr:city": "Madrid", "addr:housenumber": "53", "addr:postcode": "28015", "addr:street": "Calle de Andr\u00e9s Mellado", "amenity": "bar", "name": "Bar Armando"}}, {"type": "node", "id": 2668403180, "lat": 40.4322526, "lon": -3.7143842, "tags": {"addr:city": "Madrid", "addr:housenumber": "18", "addr:postcode": "28015", "addr:street": "Calle de Andr\u00e9s Mellado", "amenity": "bar", "name": "La Taberna de Nacho"}}, {"type": "node", "id": 2669198769, "lat": 40.4271431, "lon": -3.7084665, "tags": {"name": "Kramer", "contact:facebook": "https://www.facebook.com/pages/Kramer/261335687340473", "amenity": "bar", "phone": "+34 639 74 57 24", "addr:city": "Madrid", "addr:housenumber": "1", "addr:postcode": "28015", "addr:street": "Plaza de las Comendadoras"}}, {"type": "node", "id": 2669198770, "lat": 40.4272999, "lon": -3.708479, "tags": {"name": "Caf\u00e9 Moderno", "amenity": "bar", "addr:street": "Plaza de las Comendadoras", "addr:postcode": "28015", "email": "info@cafemodernomadrid.com", "addr:housenumber": "1", "website": "http://cafemodernomadrid.com/", "addr:city": "Madrid"}}, {"type": "node", "id": 2669909213, "lat": 40.4298678, "lon": -3.7052903, "tags": {"name": "Bar Iberia", "addr:city": "Madrid", "addr:housenumber": "4", "addr:postcode": "28015", "addr:street": "Glorieta de Ruiz Jim\u00e9nez", "amenity": "bar"}}, {"type": "node", "id": 2669935789, "lat": 40.4317708, "lon": -3.7101988, "tags": {"addr:city": "Madrid", "addr:housenumber": "26", "addr:postcode": "28015", "addr:street": "Calle de Rodr\u00edguez San Pedro", "amenity": "bar", "cuisine": "regional", "name": "Bar S\u00e1nchez"}}, {"type": "node", "id": 2669978634, "lat": 40.433136, "lon": -3.7134979, "tags": {"addr:city": "Madrid", "addr:housenumber": "33", "addr:postcode": "28015", "addr:street": "Calle de Guzm\u00e1n el Bueno", "amenity": "bar", "name": "Los Chicos"}}, {"type": "node", "id": 2669997846, "lat": 40.4352708, "lon": -3.7140351, "tags": {"addr:city": "Madrid", "addr:housenumber": "71", "addr:postcode": "28015", "addr:street": "Calle de Fern\u00e1ndez de los R\u00edos", "amenity": "bar", "contact:facebook": "https://es-es.facebook.com/BarBukavu", "name": "Bukavu", "phone": "+34 915 43 81 16"}}, {"type": "node", "id": 2671114632, "lat": 40.4290265, "lon": -3.7092369, "tags": {"contact:facebook": "https://es-es.facebook.com/pages/Bar-Leiner-Madrid/352350908231147", "name": "Bar Leiner", "amenity": "bar", "phone": "+34 687 44 47 75", "addr:city": "Madrid", "addr:housenumber": "42", "addr:postcode": "28015", "addr:street": "Calle del Conde Duque"}}, {"type": "node", "id": 2671134385, "lat": 40.4312897, "lon": -3.7090267, "tags": {"addr:city": "Madrid", "addr:housenumber": "15", "addr:postcode": "28015", "addr:street": "Calle de Vallehermoso", "amenity": "bar", "name": "Garden"}}, {"type": "node", "id": 2671241930, "lat": 40.4260303, "lon": -3.7074225, "tags": {"website": "http://www.carmencitabar.com/", "addr:city": "Madrid", "addr:housenumber": "51", "addr:postcode": "28015", "addr:street": "Calle de San Vicente Ferrer", "amenity": "bar", "email": "carmencita@carmencitabar.com", "name": "La Carmencita", "phone": "+34 915 23 80 73"}}, {"type": "node", "id": 2674508120, "lat": 40.4213895, "lon": -3.7014339, "tags": {"addr:city": "Madrid", "addr:country": "ES", "addr:housenumber": "3", "addr:postcode": "28004", "addr:street": "Calle de San Onofre", "amenity": "bar", "name": "La Austriaca"}}, {"type": "node", "id": 2676403354, "lat": 40.4199078, "lon": -3.679105, "tags": {"amenity": "bar", "addr:street": "Avenida de Men\u00e9ndez Pelayo", "addr:housenumber": "17", "name": "Casa Martin", "name:en": "Martin\u2019s House"}}, {"type": "node", "id": 2676403357, "lat": 40.4201263, "lon": -3.6791962, "tags": {"addr:street": "Avenida de Men\u00e9ndez Pelayo", "addr:housenumber": "15", "name": "B de J", "amenity": "bar"}}, {"type": "node", "id": 2676681007, "lat": 40.4257426, "lon": -3.7134716, "tags": {"addr:city": "Madrid", "addr:housenumber": "5", "addr:postcode": "28008", "addr:street": "Calle de Ventura Rodr\u00edguez", "amenity": "bar", "name": "Bora Bora", "phone": "+34 915 420 467", "website": "http://www.borabora-polinessianbar.com/"}}, {"type": "node", "id": 2676855000, "lat": 40.422695, "lon": -3.7036263, "tags": {"wikidata": "Q57446009", "cuisine": "regional", "name": "Bar Galleta", "old_name": "Mayke II", "addr:city": "Madrid", "addr:country": "ES", "addr:housenumber": "31", "addr:postcode": "28004", "addr:street": "Corredera Baja de San Pablo", "amenity": "bar"}}, {"type": "node", "id": 2676855001, "lat": 40.4235992, "lon": -3.7050937, "tags": {"contact:facebook": "https://es-la.facebook.com/ThePassengerMadrid", "amenity": "bar", "email": "thepassenger.madrid@gmail.com", "name": "The Passenger", "addr:street": "Calle del Pez", "phone": "+34 911 69 49 76", "addr:city": "Madrid", "addr:housenumber": "16", "addr:postcode": "28004"}}, {"type": "node", "id": 2678581208, "lat": 40.423562, "lon": -3.7086553, "tags": {"addr:city": "Madrid", "addr:housenumber": "7", "addr:postcode": "28015", "addr:street": "Plaza de los Mostenses", "amenity": "bar", "name": "Bar Selva", "wheelchair": "no", "wheelchair:description": "Escalones"}}, {"type": "node", "id": 2681923263, "lat": 40.4244549, "lon": -3.709445, "tags": {"name": "Fotomat\u00f3n", "addr:city": "Madrid", "addr:housenumber": "2", "addr:postcode": "28015", "addr:street": "Plaza del Conde de Toreno", "amenity": "bar", "contact:facebook": "https://es-es.facebook.com/fotomatonbarconciertos"}}, {"type": "node", "id": 2682145885, "lat": 40.4258218, "lon": -3.7114898, "tags": {"website": "http://www.eljardinsecretomadrid.com/main/", "addr:city": "Madrid", "addr:housenumber": "2", "addr:postcode": "28015", "addr:street": "Calle del Conde Duque", "amenity": "bar", "name": "El Jard\u00edn Secreto", "wheelchair": "limited"}}, {"type": "node", "id": 2683834796, "lat": 40.4232549, "lon": -3.7066539, "tags": {"addr:city": "Madrid", "addr:housenumber": "8", "addr:postcode": "28004", "addr:street": "Calle de Andr\u00e9s Borrego", "amenity": "bar", "name": "Alevos\u00eda", "old_name": "Destino"}}, {"type": "node", "id": 2686354969, "lat": 40.4288286, "lon": -3.7034042, "tags": {"addr:city": "Madrid", "addr:housenumber": "33", "addr:postcode": "28004", "addr:street": "Calle de San Andr\u00e9s", "amenity": "bar", "contact:facebook": "https://www.facebook.com/Varsovia-bar-cocktail-1589485831363554/", "name": "Varsovia", "old_name": "Caf\u00e9 El Parnasillo"}}, {"type": "node", "id": 2686604968, "lat": 40.3951857, "lon": -3.706852, "tags": {"amenity": "bar", "opening_hours": "19:00-3:00", "name": "Denay", "old_name": "La Trola"}}, {"type": "node", "id": 2686612542, "lat": 40.4225617, "lon": -3.7046105, "tags": {"contact:facebook": "https://es-es.facebook.com/pages/El-Coconut-Bar/361171213991996", "name": "El Fabuloso Coconut", "wheelchair:description": "Dos escalones, uno de 16cm y otro de 8cm", "addr:city": "Madrid", "addr:housenumber": "14", "addr:postcode": "28004", "addr:street": "Calle de San Roque", "amenity": "bar", "phone": "+34 605 96 24 05", "wheelchair": "limited"}}, {"type": "node", "id": 2692358624, "lat": 40.406098, "lon": -3.7078743, "tags": {"old_name": "Paco y Miguel", "name": "Gourmet", "amenity": "bar"}}, {"type": "node", "id": 2692581960, "lat": 40.4233876, "lon": -3.7027566, "tags": {"name": "Farmacia de Guardia", "addr:city": "Madrid", "addr:country": "ES", "addr:housenumber": "49", "addr:postcode": "28004", "addr:street": "Corredera Baja de San Pablo", "amenity": "bar"}}, {"type": "node", "id": 2692581964, "lat": 40.4237869, "lon": -3.7020738, "tags": {"wheelchair": "limited", "addr:city": "Madrid", "addr:country": "ES", "addr:housenumber": "15", "addr:postcode": "28004", "addr:street": "Calle de Col\u00f3n", "amenity": "bar", "name": "Sidi"}}, {"type": "node", "id": 2692581973, "lat": 40.4232668, "lon": -3.7028673, "tags": {"wikidata": "Q57446406", "addr:city": "Madrid", "addr:housenumber": "47", "addr:postcode": "28004", "addr:street": "Corredera Baja de San Pablo", "amenity": "bar", "contact:facebook": "https://es-es.facebook.com/Gorilamadrid", "email": "gorilacafemadrid@gmail.com", "name": "Gorila", "phone": "+34 910 07 08 88"}}, {"type": "node", "id": 2694452207, "lat": 40.4206008, "lon": -3.707832, "tags": {"addr:city": "Madrid", "addr:housenumber": "4", "addr:postcode": "28013", "addr:street": "Calle de Silva", "amenity": "bar", "name": "Tanka's"}}, {"type": "node", "id": 2694514305, "lat": 40.419116, "lon": -3.7070473, "tags": {"addr:city": "Madrid", "addr:housenumber": "7", "addr:postcode": "28013", "addr:street": "Calle de las Navas de Tolosa", "amenity": "bar", "name": "Vi\u00f1a"}}, {"type": "node", "id": 2696236499, "lat": 40.4189491, "lon": -3.7082735, "tags": {"addr:street": "Calle Costanilla de los \u00c1ngeles", "addr:city": "Madrid", "addr:housenumber": "9", "addr:postcode": "28013", "amenity": "bar", "name": "La Galer\u00eda"}}, {"type": "node", "id": 2696236500, "lat": 40.4189322, "lon": -3.7081204, "tags": {"addr:street": "Calle Costanilla de los \u00c1ngeles", "addr:city": "Madrid", "addr:housenumber": "12", "addr:postcode": "28013", "amenity": "bar", "name": "La Cervecer\u00eda Deportiva"}}, {"type": "node", "id": 2696236503, "lat": 40.4173077, "lon": -3.7087212, "tags": {"name": "Sambao", "addr:city": "Madrid", "addr:housenumber": "9", "addr:postcode": "28013", "addr:street": "Calle de las Fuentes", "amenity": "bar"}}, {"type": "node", "id": 2696236504, "lat": 40.4141739, "lon": -3.7085488, "tags": {"addr:city": "Madrid", "addr:housenumber": "3", "addr:postcode": "28005", "addr:street": "Calle G\u00f3mez de Mora", "amenity": "bar", "name": "Plaza Menor"}}, {"type": "node", "id": 2697521932, "lat": 40.4154499, "lon": -3.7132643, "tags": {"phone": "+34 91 559 53 32", "website": "http://www.elancianoreydelosvinos.es/", "addr:city": "Madrid", "addr:housenumber": "19", "addr:postcode": "28013", "addr:street": "Calle de Bail\u00e9n", "amenity": "bar", "name": "El Anciano Rey de los Vinos"}}, {"type": "node", "id": 2697521934, "lat": 40.4124908, "lon": -3.7145144, "tags": {"addr:city": "Madrid", "addr:housenumber": "1", "addr:postcode": "28005", "addr:street": "Plaza Gabriel Mir\u00f3", "amenity": "bar", "name": "Mar\u00eda Pandora", "phone": "+34 913 64 00 39", "website": "https://www.mariapandora.com/"}}, {"type": "node", "id": 2697521935, "lat": 40.4072207, "lon": -3.7039201, "tags": {"amenity": "bar", "name": "Oss I"}}, {"type": "node", "id": 2697589097, "lat": 40.4165548, "lon": -3.7111395}, {"type": "node", "id": 2702466185, "lat": 40.4266206, "lon": -3.7078059, "tags": {"amenity": "bar", "contact:facebook": "https://www.facebook.com/LaLocaJuanaBarDeVinos/", "contact:phone": "+34 916 03 52 81", "contact:website": "http://lalocajuanabardevinos.com/", "name": "La Loca Juana", "old_name": "Caf\u00e9 Coyote", "addr:street": "Calle de la Palma", "addr:postcode": "28015", "addr:city": "Madrid", "addr:housenumber": "63"}}, {"type": "node", "id": 2702466186, "lat": 40.4266158, "lon": -3.7076255, "tags": {"addr:city": "Madrid", "addr:housenumber": "61", "addr:postcode": "28015", "addr:street": "Calle de la Palma", "amenity": "bar", "name": "Bodegas Rivas"}}, {"type": "node", "id": 2702466187, "lat": 40.4268081, "lon": -3.7079868, "tags": {"website": "http://www.cafelapalma.com/", "addr:city": "Madrid", "addr:housenumber": "62", "addr:postcode": "28015", "addr:street": "Calle de la Palma", "amenity": "bar", "email": "cafelapalma@cafelapalma.com", "name": "Caf\u00e9 La Palma", "phone": "+34 91 522 50 31"}}, {"type": "node", "id": 2702466188, "lat": 40.4267136, "lon": -3.708162, "tags": {"addr:city": "Madrid", "addr:housenumber": "67", "addr:postcode": "28015", "addr:street": "Calle de la Palma", "amenity": "bar", "name": "La Palmera"}}, {"type": "node", "id": 2702466189, "lat": 40.4266682, "lon": -3.7083324, "tags": {"amenity": "bar", "addr:street": "Calle de la Palma", "name": "La Pasteler\u00eda Eventos", "addr:postcode": "28015", "addr:housenumber": "69", "website": "http://www.lapasteeventos.com/", "addr:city": "Madrid"}}, {"type": "node", "id": 2703977210, "lat": 40.4240374, "lon": -3.705362, "tags": {"name": "La Paralela", "old_name": "Tiovivo", "amenity": "bar", "contact:facebook": "https://es-es.facebook.com/laparalelabar/", "addr:street": "Calle del Marqu\u00e9s de Santa Ana", "addr:postcode": "28004", "addr:city": "Madrid", "addr:housenumber": "2"}}, {"type": "node", "id": 2703977212, "lat": 40.4241771, "lon": -3.7053185, "tags": {"amenity": "bar", "name": "La Milana Bonita", "addr:street": "Calle del Marqu\u00e9s de Santa Ana", "addr:postcode": "28004", "addr:city": "Madrid", "addr:housenumber": "7"}}, {"type": "node", "id": 2703977219, "lat": 40.4251956, "lon": -3.7037295, "tags": {"name": "El \u00daltimo", "amenity": "bar", "addr:city": "Madrid", "addr:housenumber": "32", "addr:postcode": "28004", "addr:street": "Calle del Marqu\u00e9s de Santa Ana"}}, {"type": "node", "id": 2703977221, "lat": 40.4254499, "lon": -3.7035837, "tags": {"addr:street": "Calle del Espiritu Santo", "addr:city": "Madrid", "addr:housenumber": "26", "addr:postcode": "28004", "amenity": "bar", "name": "El Rinc\u00f3n"}}, {"type": "node", "id": 2704017909, "lat": 40.4269172, "lon": -3.7035901, "tags": {"wheelchair:description": "Escal\u00f3n alto", "wheelchair": "no", "addr:city": "Madrid", "addr:housenumber": "18", "addr:postcode": "28004", "addr:street": "Calle de San Andr\u00e9s", "amenity": "bar", "name": "El 2D"}}, {"type": "node", "id": 2713719961, "lat": 40.4871076, "lon": -3.7015592, "tags": {"addr:street": "Calle de Alfredo Marqurie", "addr:city": "Madrid", "addr:housenumber": "23", "addr:postcode": "28034", "amenity": "bar", "name": "El 23"}}, {"type": "node", "id": 2715333601, "lat": 40.4268417, "lon": -3.7087489, "tags": {"addr:city": "Madrid", "addr:housenumber": "72", "addr:postcode": "28015", "addr:street": "Calle de la Palma", "amenity": "bar", "contact:facebook": "https://es-la.facebook.com/Estocolmo.bar", "name": "Estocolmo"}}, {"type": "node", "id": 2715333606, "lat": 40.4268365, "lon": -3.7086952, "tags": {"addr:city": "Madrid", "addr:housenumber": "70", "addr:postcode": "28015", "addr:street": "Calle de la Palma", "amenity": "bar", "contact:facebook": "https://www.facebook.com/La-Caracola-del-Norte-1352561858148381/?ref=page_internal", "name": "La Caracola del Norte"}}, {"type": "node", "id": 2717099618, "lat": 40.4238761, "lon": -3.7051897, "tags": {"addr:street": "Calle de Jes\u00fas del Valle", "addr:postcode": "28004", "phone": "+34 667430692", "website": "http://casadelpezginbar.blogspot.com.es/", "amenity": "bar", "name": "La Casa del Pez", "addr:housenumber": "1", "addr:city": "Madrid"}}, {"type": "node", "id": 2723834805, "lat": 40.4143535, "lon": -3.7009567, "tags": {"wikidata": "Q57446757", "addr:street": "Plaza del \u00c1ngel", "website": "https://cerveceriasantaana.com/", "phone": "+34 91 429 43 56", "addr:city": "Madrid", "addr:housenumber": "10", "addr:postcode": "28012", "amenity": "bar", "email": "info@cerveceriasantaana.com", "name": "Cervecer\u00eda Santa Ana", "name:zh": "\u559d\u5564\u9152\u7684\u597d\u5730\u65b9"}}, {"type": "node", "id": 2725509702, "lat": 40.4257407, "lon": -3.7087393, "tags": {"addr:city": "Madrid", "addr:housenumber": "16", "addr:postcode": "28015", "addr:street": "Calle de Noviciado", "amenity": "bar", "contact:facebook": "https://es-es.facebook.com/pages/Candi/47511143720", "name": "Candi"}}, {"type": "node", "id": 2725509705, "lat": 40.4258631, "lon": -3.7101173, "tags": {"old_name": "Toledano", "addr:city": "Madrid", "addr:postcode": "28015", "addr:street": "Traves\u00eda del Conde Duque", "amenity": "bar", "name": "El Chorrillo"}}, {"type": "node", "id": 2725509709, "lat": 40.426245, "lon": -3.7106678, "tags": {"addr:city": "Madrid", "addr:housenumber": "11", "addr:postcode": "28015", "addr:street": "Calle del Lim\u00f3n", "amenity": "bar", "email": "rustikacafe@yahoo.es", "name": "Rustika", "phone": "+34 619248255", "website": "http://www.rustikacafe.net/"}}, {"type": "node", "id": 2725509720, "lat": 40.4265288, "lon": -3.7105579, "tags": {"addr:city": "Madrid", "addr:housenumber": "15", "addr:postcode": "28015", "addr:street": "Calle del Lim\u00f3n", "amenity": "bar", "contact:phone": "+34 622 035 741", "contact:website": "http://www.macanudobarespacioarte.es/", "name": "Macanudo", "old_name": "El Verde Lim\u00f3n"}}, {"type": "node", "id": 2725509726, "lat": 40.4264797, "lon": -3.7104605, "tags": {"addr:city": "Madrid", "addr:housenumber": "16", "addr:postcode": "28015", "addr:street": "Calle del Lim\u00f3n", "amenity": "bar", "name": "Taberna de Abajo"}}, {"type": "node", "id": 2725509731, "lat": 40.426784, "lon": -3.7102896, "tags": {"addr:city": "Madrid", "addr:housenumber": "22", "addr:postcode": "28015", "addr:street": "Calle del Lim\u00f3n", "amenity": "bar", "name": "Taberna del Lim\u00f3n"}}, {"type": "node", "id": 2725509744, "lat": 40.4269337, "lon": -3.7103729, "tags": {"name": "Taberna de Corps", "amenity": "bar", "addr:street": "Plaza de los Guardias de Corps", "addr:city": "Madrid", "addr:housenumber": "1", "addr:postcode": "28015"}}, {"type": "node", "id": 2725509748, "lat": 40.426831, "lon": -3.7097747, "tags": {"name": "Taberna de la Casta", "amenity": "bar", "addr:city": "Madrid", "addr:housenumber": "1", "addr:postcode": "28015", "addr:street": "Calle de Cristo"}}, {"type": "node", "id": 2725509753, "lat": 40.4268392, "lon": -3.7098712, "tags": {"addr:street": "Calle de Cristo", "addr:postcode": "28015", "name": "La Canela", "addr:housenumber": "1", "addr:city": "Madrid", "amenity": "bar"}}, {"type": "node", "id": 2728979086, "lat": 40.4207051, "lon": -3.7091551, "tags": {"addr:city": "Madrid", "addr:housenumber": "12", "addr:postcode": "28013", "addr:street": "Plaza de Santo Domingo", "amenity": "bar", "name": "Bar Mu\u00f1iz"}}, {"type": "node", "id": 2728979106, "lat": 40.4197232, "lon": -3.7090013, "tags": {"addr:city": "Madrid", "addr:housenumber": "16", "addr:postcode": "28013", "addr:street": "Cuesta de Santo Domingo", "amenity": "bar", "name": "Cervecer\u00eda Monje"}}, {"type": "node", "id": 2730780941, "lat": 40.4045265, "lon": -3.681082, "tags": {"amenity": "bar", "name": "Bodegas Casas"}}, {"type": "node", "id": 2732823170, "lat": 40.4645709, "lon": -3.5884045, "tags": {"amenity": "bar", "name": "Bar Pepito"}}, {"type": "node", "id": 2739009484, "lat": 40.3959125, "lon": -3.7115471, "tags": {"amenity": "bar", "name": "Donde Blas"}}, {"type": "node", "id": 2750782367, "lat": 40.408393, "lon": -3.7164666, "tags": {"addr:housenumber": "22", "addr:street": "Ronda de Segovia", "amenity": "bar", "name": "Camarote Vintage"}}, {"type": "node", "id": 2756126346, "lat": 40.4251227, "lon": -3.7033409, "tags": {"phone": "+34 605 96 26 24", "old_name": "Caf\u00e9-Bar Bendita;Espacio Quoncor", "addr:city": "Madrid", "addr:housenumber": "31", "addr:postcode": "28004", "addr:street": "Calle de Jes\u00fas del Valle", "amenity": "bar", "contact:facebook": "https://es-es.facebook.com/superpopbar/", "name": "S\u00faper Pop Bar"}}, {"type": "node", "id": 2769265445, "lat": 40.4238524, "lon": -3.7013629, "tags": {"addr:city": "Madrid", "addr:housenumber": "12", "addr:postcode": "28004", "addr:street": "Calle de Col\u00f3n", "amenity": "bar", "contact:facebook": "https://es-es.facebook.com/WHARF73", "email": "wharf73madrid@gmail.com", "name": "Wharf 73", "phone": "+34 649 76 76 76"}}, {"type": "node", "id": 2777281758, "lat": 40.4261262, "lon": -3.6981877, "tags": {"wikidata": "Q57446560", "addr:city": "Madrid", "addr:housenumber": "21", "addr:postcode": "28004", "addr:street": "Calle de San Mateo", "addr:subdistrict": "Justicia", "amenity": "bar", "contact:facebook": "https://www.facebook.com/Macera-TallerBar-385185174987576/", "contact:phone": "+34 910 11 58 10", "contact:website": "http://www.maceradrinks.com/", "name": "Macera", "old_name": "Deja Vu"}}, {"type": "node", "id": 2777281759, "lat": 40.4261723, "lon": -3.6980858, "tags": {"website": "http://alcaravea.com/cuatrodeocho/", "addr:city": "Madrid", "addr:housenumber": "21", "addr:postcode": "28004", "addr:street": "Calle de San Mateo", "addr:subdistrict": "Justicia", "amenity": "bar", "name": "Cuatro de Ocho", "old_name": "P\u00e1 Jam\u00e1"}}, {"type": "node", "id": 2779332371, "lat": 40.4271584, "lon": -3.6748915, "tags": {"addr:city": "Madrid", "addr:housenumber": "102", "addr:postcode": "28006", "addr:street": "Calle de Ayala", "amenity": "bar", "name": "Bar Ayala"}}, {"type": "node", "id": 2779332414, "lat": 40.4273588, "lon": -3.6783279, "tags": {"addr:city": "Madrid", "addr:housenumber": "82", "addr:postcode": "28001", "addr:street": "Calle de Ayala", "amenity": "bar", "name": "DG Lounge Coffee", "phone": "+34 914318769", "website": "http://loungecoffee.com/lounge/ubicacion.html"}}, {"type": "node", "id": 2782198968, "lat": 40.4233378, "lon": -3.705797, "tags": {"amenity": "bar", "name": "El Rinc\u00f3n de Falin", "addr:street": "Calle Pizarro", "addr:postcode": "28004", "addr:city": "Madrid", "addr:housenumber": "13"}}, {"type": "node", "id": 2799017153, "lat": 40.3631669, "lon": -3.5977048, "tags": {"amenity": "bar", "name": "Ensanche 71"}}, {"type": "node", "id": 2799017156, "lat": 40.3676749, "lon": -3.6008728, "tags": {"amenity": "bar", "name": "Lakshmi"}}, {"type": "node", "id": 2800761748, "lat": 40.4023377, "lon": -3.6226454, "tags": {"addr:city": "Madrid", "addr:housenumber": "10", "addr:postcode": "28032", "addr:street": "Plaza de Rosa Chacel", "amenity": "bar", "name": "BareM@gnum"}}, {"type": "node", "id": 2800761751, "lat": 40.3988437, "lon": -3.622353, "tags": {"addr:city": "Madrid", "addr:housenumber": "26", "addr:postcode": "28032", "addr:street": "Bulevar de Indalecio Prieto", "amenity": "bar", "name": "As Sport Bar"}}, {"type": "node", "id": 2813472230, "lat": 40.4257581, "lon": -3.6987067, "tags": {"website": "http://adamsocialclub.es/", "addr:city": "Madrid", "addr:housenumber": "22", "addr:postcode": "28004", "addr:street": "Calle de San Mateo", "addr:subdistrict": "Justicia", "amenity": "bar", "name": "Adam", "old_name": "Task\u00f3polis La Tasca Internacional"}}, {"type": "node", "id": 2815481540, "lat": 40.4269057, "lon": -3.7034373, "tags": {"wikidata": "Q57446098", "addr:city": "Madrid", "addr:housenumber": "24", "addr:postcode": "28004", "addr:street": "Calle de Velarde", "amenity": "bar", "contact:facebook": "https://es-es.facebook.com/verbenabarmadriz", "name": "Verbena Bar", "phone": "+34 914 26 64 91", "wheelchair": "no", "wheelchair:description": "Escal\u00f3n muy alto"}}, {"type": "node", "id": 2815481542, "lat": 40.4267558, "lon": -3.7028574, "tags": {"wheelchair:description": "2 escalones", "addr:city": "Madrid", "addr:housenumber": "9", "addr:postcode": "28004", "addr:street": "Calle de Velarde", "amenity": "bar", "name": "Laberinto", "wheelchair": "no"}}, {"type": "node", "id": 2820273947, "lat": 40.4219086, "lon": -3.7060084, "tags": {"addr:city": "Madrid", "addr:housenumber": "3", "addr:postcode": "28004", "addr:street": "Calle de la Estrella", "amenity": "bar", "name": "Ideal", "old_name": "Juanita Banana"}}, {"type": "node", "id": 2820273948, "lat": 40.4219515, "lon": -3.7060788, "tags": {"contact:facebook": "https://es-es.facebook.com/pages/EL-FABULOSO/194584055615", "email": "barbieasesina@hotmail.com", "name": "El Fabuloso", "amenity": "bar", "phone": "+34 605 96 24 05", "addr:city": "Madrid", "addr:housenumber": "3", "addr:postcode": "28004", "addr:street": "Calle de la Estrella"}}, {"type": "node", "id": 2824456974, "lat": 40.4195218, "lon": -3.7095302, "tags": {"addr:city": "Madrid", "addr:housenumber": "10", "addr:postcode": "28013", "addr:street": "Cuesta de Santo Domingo", "amenity": "bar", "contact:phone": "+34 91 297 66 80", "contact:website": "http://www.sankaraloungebar.es/", "name": "Sankara Lounge Bar", "old_name": "La Encantada Reina de Cuba"}}, {"type": "node", "id": 2832332736, "lat": 40.4533285, "lon": -3.7000147, "tags": {"amenity": "bar", "name": "La Zure"}}, {"type": "node", "id": 2839832721, "lat": 40.4582797, "lon": -3.6736282, "tags": {"amenity": "bar", "name": "La Bomba Bar"}}, {"type": "node", "id": 2864063288, "lat": 40.4583293, "lon": -3.6801966, "tags": {"amenity": "bar", "name": "Forty Six"}}, {"type": "node", "id": 2864197169, "lat": 40.4570535, "lon": -3.6990651, "tags": {"amenity": "bar", "name": "La Taka\u00f1a", "old_name": "Wendel's"}}, {"type": "node", "id": 2867455331, "lat": 40.4585098, "lon": -3.6841131, "tags": {"amenity": "bar", "name": "Mercado Provenzal"}}, {"type": "node", "id": 2868776266, "lat": 40.4573307, "lon": -3.7119809, "tags": {"name": "Frisbee", "amenity": "bar"}}, {"type": "node", "id": 2877835224, "lat": 40.4114128, "lon": -3.7090054, "tags": {"addr:city": "Madrid", "addr:street": "Plaza de la Cebada", "amenity": "bar", "contact:phone": "+34 639 400 954", "name": "Lorena", "old_name": "Dehesa de los Pedroches"}}, {"type": "node", "id": 2883849005, "lat": 40.4410002, "lon": -3.6938377, "tags": {"amenity": "bar", "name": "Pel Place"}}, {"type": "node", "id": 2892561608, "lat": 40.4280161, "lon": -3.7167772, "tags": {"amenity": "bar", "name": "La Tizona"}}, {"type": "node", "id": 2893245191, "lat": 40.429438, "lon": -3.6985584, "tags": {"amenity": "bar", "addr:street": "Calle de Nicasio Gallego", "name": "El Duende de la Cerveza", "addr:postcode": "28010", "phone": "+34 914 45 22 73", "addr:housenumber": "14", "addr:city": "Madrid", "addr:country": "ES"}}, {"type": "node", "id": 2894396964, "lat": 40.4322941, "lon": -3.7191022, "tags": {"amenity": "bar", "name": "R\u00edo Durat\u00f3n"}}, {"type": "node", "id": 2910965642, "lat": 40.4594237, "lon": -3.702274, "tags": {"name": "Jarra y Pedal", "addr:city": "Madrid", "addr:housenumber": "3", "addr:postcode": "28039", "addr:street": "Calle de la Hierbabuena", "amenity": "bar"}}, {"type": "node", "id": 2916188366, "lat": 40.4474054, "lon": -3.7042257, "tags": {"amenity": "bar", "name": "Rub\u00ed"}}, {"type": "node", "id": 2917316307, "lat": 40.4204852, "lon": -3.7081329, "tags": {"contact:website": "http://www.jijonenca.es/WEB/principal.php", "name": "Wanderlust", "old_name_1": "Jijonenca", "old_name": "Mi Jugueter\u00eda", "amenity": "bar", "addr:street": "Calle de Silva", "addr:postcode": "28013", "addr:city": "Madrid"}}, {"type": "node", "id": 2924977457, "lat": 40.4352426, "lon": -3.6863163, "tags": {"payment:bitcoin": "yes", "name": "Makkila", "addr:city": "Madrid", "addr:housenumber": "110", "addr:postcode": "28006", "addr:street": "Calle de Serrano", "amenity": "bar"}}, {"type": "node", "id": 2929357293, "lat": 40.4595124, "lon": -3.7002286, "tags": {"amenity": "bar", "name": "La Jara", "addr:city": "Madrid", "addr:housenumber": "6", "addr:postcode": "28039", "addr:street": "Calle de Tablada"}}, {"type": "node", "id": 2930709925, "lat": 40.4590725, "lon": -3.7005483, "tags": {"addr:city": "Madrid", "addr:housenumber": "4", "addr:postcode": "28039", "addr:street": "Calle de Mar\u00eda Zayas", "amenity": "bar", "name": "Tir\u00f3n"}}, {"type": "node", "id": 2932436337, "lat": 40.4600448, "lon": -3.7001686, "tags": {"addr:city": "Madrid", "addr:housenumber": "5", "addr:postcode": "28039", "addr:street": "Calle de los Algodonales", "amenity": "bar", "name": "Baranzo"}}, {"type": "node", "id": 2932436338, "lat": 40.4601708, "lon": -3.7004217, "tags": {"addr:city": "Madrid", "addr:housenumber": "9", "addr:postcode": "28039", "addr:street": "Calle de los Algodonales", "amenity": "bar", "name": "Distrito Tetu\u00e1n"}}, {"type": "node", "id": 2941635139, "lat": 40.4613973, "lon": -3.7014951, "tags": {"addr:city": "Madrid", "addr:housenumber": "35 D", "addr:postcode": "28039", "addr:street": "Calle del Naranjo", "amenity": "bar", "name": "Crespo"}}, {"type": "node", "id": 2944066790, "lat": 40.4031309, "lon": -3.6443477, "tags": {"name": "Crin", "amenity": "bar", "addr:city": "Madrid", "addr:housenumber": "124", "addr:postcode": "28030", "addr:street": "Calle de la Hacienda de Pavones"}}, {"type": "node", "id": 2945792743, "lat": 40.4611902, "lon": -3.7000483, "tags": {"addr:city": "Madrid", "addr:housenumber": "22", "addr:postcode": "28039", "addr:street": "Calle del Cactus", "amenity": "bar", "name": "Mart\u00edn", "wheelchair": "no"}}, {"type": "node", "id": 2946232757, "lat": 40.4671072, "lon": -3.6943449, "tags": {"addr:city": "Madrid", "addr:housenumber": "1", "addr:postcode": "28029", "addr:street": "Calle del Delf\u00edn", "amenity": "bar", "name": "Doble V", "wheelchair": "no", "wheelchair:description:es": "Escal\u00f3n muy alto"}}, {"type": "node", "id": 2955618099, "lat": 40.4367393, "lon": -3.686582, "tags": {"payment:bitcoin": "yes", "addr:housenumber": "85", "addr:street": "Calle de Serrano", "amenity": "bar", "name": "Check-in Madrid", "phone": "+34 91 805 3144", "smoking": "outside", "website": "http://checkinmadrid.es/web/index.html"}}, {"type": "node", "id": 2961951473, "lat": 40.4125806, "lon": -3.6955875}, {"type": "node", "id": 2961951474, "lat": 40.4125846, "lon": -3.6955922}, {"type": "node", "id": 2961951475, "lat": 40.4125969, "lon": -3.6954463}, {"type": "node", "id": 2961951486, "lat": 40.4126916, "lon": -3.6944885}, {"type": "node", "id": 2961951487, "lat": 40.4127036, "lon": -3.6945885}, {"type": "node", "id": 2961951490, "lat": 40.4127255, "lon": -3.6944795}, {"type": "node", "id": 2961951492, "lat": 40.4127302, "lon": -3.6945151}, {"type": "node", "id": 2961951496, "lat": 40.4127379, "lon": -3.6944762}, {"type": "node", "id": 2961951500, "lat": 40.4127456, "lon": -3.694513}, {"type": "node", "id": 2961951506, "lat": 40.4127761, "lon": -3.6944661}, {"type": "node", "id": 2969131853, "lat": 40.4758365, "lon": -3.7092236, "tags": {"amenity": "bar", "name": "La Cancha"}}, {"type": "node", "id": 2969139064, "lat": 40.4761017, "lon": -3.7079297, "tags": {"amenity": "bar", "name": "Las Vegas"}}, {"type": "node", "id": 2969142008, "lat": 40.4776173, "lon": -3.7026319, "tags": {"amenity": "bar", "name": "Pub El Tirol"}}, {"type": "node", "id": 2978244553, "lat": 40.4642606, "lon": -3.709838, "tags": {"amenity": "bar", "name": "Bar Capri"}}, {"type": "node", "id": 2979770625, "lat": 40.4538091, "lon": -3.6036191, "tags": {"amenity": "bar", "website": "http://www.elcampingtikilounge.com", "name": "Camping Tiki Lounge"}}, {"type": "node", "id": 3014676776, "lat": 40.4065217, "lon": -3.7061542, "tags": {"amenity": "bar", "name": "Gibraltar"}}, {"type": "node", "id": 3045505035, "lat": 40.4361586, "lon": -3.7109533, "tags": {"name": "Vita Bar", "amenity": "bar", "addr:street": "Calle de Donoso Cort\u00e9s", "addr:city": "Madrid"}}, {"type": "node", "id": 3046071470, "lat": 40.4227265, "lon": -3.6566857, "tags": {"amenity": "bar", "name": "Bar JyJ"}}, {"type": "node", "id": 3050304794, "lat": 40.4745272, "lon": -3.7187838, "tags": {"amenity": "bar", "name": "Hawaii"}}, {"type": "node", "id": 3051156933, "lat": 40.423683, "lon": -3.6048384, "tags": {"amenity": "bar", "name": "La Criba"}}, {"type": "node", "id": 3063837753, "lat": 40.4335946, "lon": -3.6481518, "tags": {"wikidata": "Q57446851", "note": "Patatas bravas", "name": "Docamar", "amenity": "bar"}}, {"type": "node", "id": 3063837754, "lat": 40.4341519, "lon": -3.6474893, "tags": {"name": "El \u00c1guila de Gredos", "amenity": "bar"}}, {"type": "node", "id": 3067686089, "lat": 40.4119165, "lon": -3.6995454}, {"type": "node", "id": 3068221417, "lat": 40.4591356, "lon": -3.6870559, "tags": {"amenity": "bar", "name": "Terraza Tochi"}}, {"type": "node", "id": 3072066174, "lat": 40.4069251, "lon": -3.6690498, "tags": {"amenity": "bar", "name": "Cafeter\u00eda Cuenca", "addr:city": "Madrid", "addr:housenumber": "53", "addr:postcode": "28007", "addr:street": "Avenida del Mediterr\u00e1neo"}}, {"type": "node", "id": 3076682054, "lat": 40.4204411, "lon": -3.6958646, "tags": {"addr:city": "Madrid", "addr:country": "ES", "addr:housenumber": "4", "addr:postcode": "28004", "addr:street": "Plaza del Rey", "addr:subdistrict": "Justicia", "amenity": "bar", "name": "Bar Sif\u00f3n", "website": "https://www.sifonmadrid.com/"}}, {"type": "node", "id": 3076682056, "lat": 40.420441, "lon": -3.6959227, "tags": {"addr:city": "Madrid", "addr:country": "ES", "addr:housenumber": "4", "addr:postcode": "28004", "addr:street": "Plaza del Rey", "addr:subdistrict": "Justicia", "amenity": "bar", "name": "Revoltosa", "website": "https://www.revoltosamadrid.com/"}}, {"type": "node", "id": 3094898221, "lat": 40.4351631, "lon": -3.6848307, "tags": {"website": "elcuentobar.es", "payment:bitcoin": "yes", "addr:city": "Madrid", "addr:housenumber": "7", "addr:postcode": "28006", "addr:street": "Calle de Diego de Le\u00f3n", "amenity": "bar", "name": "El Cuento Bar", "phone": "+34 650 84 47 35"}}, {"type": "node", "id": 3096035812, "lat": 40.3485982, "lon": -3.7133304, "tags": {"amenity": "bar", "name": "Vertical Bar de copas"}}, {"type": "node", "id": 3097034660, "lat": 40.4361853, "lon": -3.6872012, "tags": {"amenity": "bar", "addr:street": "Calle de los Hermanos B\u00e9cquer", "name": "D\u00e9jate Besar Bar", "addr:postcode": "28006", "payment:bitcoin": "yes", "phone": "+34 915 62 54 85", "website": "http://www.dejatebesar.es/", "addr:city": "Madrid", "addr:housenumber": "10"}}, {"type": "node", "id": 3119334862, "lat": 40.4625994, "lon": -3.7017434, "tags": {"addr:city": "Madrid", "addr:housenumber": "34", "addr:postcode": "28039", "addr:street": "Calle del Marqu\u00e9s de Viana", "amenity": "bar", "name": "E\u00f1e + que una letra", "wheelchair": "no", "wheelchair:description": "Escalones. Terraza accesible"}}, {"type": "node", "id": 3124574960, "lat": 40.4632841, "lon": -3.6944375, "tags": {"addr:city": "Madrid", "addr:housenumber": "26", "addr:postcode": "28020", "addr:street": "Calle de Amalia", "amenity": "bar", "name": "Bar Gallego Loureiro", "source": "survey"}}, {"type": "node", "id": 3125759380, "lat": 40.3954285, "lon": -3.7684073, "tags": {"amenity": "bar", "name": "Cris"}}, {"type": "node", "id": 3135450023, "lat": 40.4423864, "lon": -3.6822727, "tags": {"amenity": "bar", "name": "Veracruz"}}, {"type": "node", "id": 3135450028, "lat": 40.4463121, "lon": -3.6891717, "tags": {"amenity": "bar"}}, {"type": "node", "id": 3135960741, "lat": 40.4497412, "lon": -3.6902173, "tags": {"name": "Vanila", "amenity": "bar"}}, {"type": "node", "id": 3145290173, "lat": 40.4651454, "lon": -3.7071272, "tags": {"addr:city": "Madrid", "addr:housenumber": "1", "addr:postcode": "28039", "addr:street": "Calle del Aligustre", "amenity": "bar", "name": "Vistabella", "wheelchair": "limited", "wheelchair:description": "Escal\u00f3n para ba\u00f1o y obst\u00e1culos."}}, {"type": "node", "id": 3157971326, "lat": 40.4251696, "lon": -3.6530335, "tags": {"amenity": "bar", "name": "Bar Dos Hermanos"}}, {"type": "node", "id": 3159083676, "lat": 40.4235369, "lon": -3.6509423, "tags": {"amenity": "bar", "name": "Los Chikis"}}, {"type": "node", "id": 3160962490, "lat": 40.4207177, "lon": -3.6990285, "tags": {"amenity": "bar", "name": "Starbucks", "old_name": "Par\u00edsTokyo", "old_name_1": "Gift Coffee", "source": "survey"}}, {"type": "node", "id": 3161051715, "lat": 40.3835334, "lon": -3.7198198}, {"type": "node", "id": 3161051716, "lat": 40.3835352, "lon": -3.7198807}, {"type": "node", "id": 3161051717, "lat": 40.383565, "lon": -3.7197751}, {"type": "node", "id": 3161051718, "lat": 40.3835692, "lon": -3.7199221}, {"type": "node", "id": 3161051720, "lat": 40.3836114, "lon": -3.7197728}, {"type": "node", "id": 3161051721, "lat": 40.3836156, "lon": -3.7199199}, {"type": "node", "id": 3161051722, "lat": 40.3836454, "lon": -3.7198143}, {"type": "node", "id": 3161051723, "lat": 40.3836472, "lon": -3.7198752}, {"type": "node", "id": 3161138703, "lat": 40.3867067, "lon": -3.72839, "tags": {"amenity": "bar", "name": "Trote bar de copas"}}, {"type": "node", "id": 3161160131, "lat": 40.460715, "lon": -3.6965167, "tags": {"amenity": "bar", "name": "Vi Ai Pi"}}, {"type": "node", "id": 3161180807, "lat": 40.4586254, "lon": -3.6868994, "tags": {"amenity": "bar", "old_name": "Fitness Center", "name": "Gran Bocadillo"}}, {"type": "node", "id": 3161226309, "lat": 40.421974, "lon": -3.6968936, "tags": {"amenity": "bar", "name": "Bee.Beer", "name:es": "Bee.Beer", "addr:subdistrict": "Justicia", "addr:street": "Calle de Augusto Figueroa", "addr:postcode": "28004", "addr:city": "Madrid", "addr:country": "ES", "addr:housenumber": "30"}}, {"type": "node", "id": 3161265198, "lat": 40.4227197, "lon": -3.6984803, "tags": {"opening_hours": "Mo-Fr 20:00-01:00; Sa 14:00-16:30, 20:00-01:00", "addr:city": "Madrid", "addr:country": "ES", "addr:housenumber": "24", "addr:postcode": "28004", "addr:street": "Calle de Pelayo", "addr:subdistrict": "Justicia", "amenity": "bar", "name": "Baco", "name:en": "Baco y Beto", "name:es": "Baco y Beto"}}, {"type": "node", "id": 3165728361, "lat": 40.4620353, "lon": -3.6881312, "tags": {"amenity": "bar"}}, {"type": "node", "id": 3172798059, "lat": 40.4300609, "lon": -3.6461956, "tags": {"amenity": "bar", "name": "Sidrer\u00eda El 3"}}, {"type": "node", "id": 3190243419, "lat": 40.4071283, "lon": -3.7022347, "tags": {"amenity": "bar", "smoking": "no", "name": "La misa de 8:00", "addr:city": "Madrid", "addr:housenumber": "71", "addr:postcode": "28012", "addr:street": "Calle del Mes\u00f3n de Paredes"}}, {"type": "node", "id": 3196265243, "lat": 40.4434177, "lon": -3.714034, "tags": {"amenity": "bar", "name": "La Bra\u00f1a"}}, {"type": "node", "id": 3196267992, "lat": 40.443697, "lon": -3.7145052, "tags": {"amenity": "bar", "name": "After Nine"}}, {"type": "node", "id": 3196394313, "lat": 40.4472638, "lon": -3.7107031, "tags": {"amenity": "bar"}}, {"type": "node", "id": 3203268984, "lat": 40.4300693, "lon": -3.6515139, "tags": {"amenity": "bar", "name": "Cervecer\u00eda Torrecilla"}}, {"type": "node", "id": 3206672288, "lat": 40.4222571, "lon": -3.7189077, "tags": {"phone": "+34 918053931", "name": "Caf\u00e9 del Rey", "addr:housenumber": "22", "addr:street": "Paseo del Rey", "amenity": "bar"}}, {"type": "node", "id": 3206679166, "lat": 40.4354314, "lon": -3.6642229, "tags": {"name": "Cafeter\u00eda/Cervecer\u00eda Biarritz", "amenity": "bar", "addr:street": "Calle de Biarritz", "addr:housenumber": "1"}}, {"type": "node", "id": 3206737731, "lat": 40.4347923, "lon": -3.6647548, "tags": {"name": "Bar Fiesta", "amenity": "bar", "addr:street": "Calle de Colomer", "addr:housenumber": "11"}}, {"type": "node", "id": 3208935361, "lat": 40.4085182, "lon": -3.7074769, "tags": {"amenity": "bar", "name": "Cervecer\u00eda Toma que toma", "addr:city": "Madrid", "addr:housenumber": "10", "addr:postcode": "28005", "addr:street": "Calle Ribera de Curtidores", "wheelchair": "no", "wheelchair:description": "2 entradas inaccesibles"}}, {"type": "node", "id": 3212683924, "lat": 40.4347025, "lon": -3.6820934, "tags": {"addr:street": "Calle N\u00fa\u00f1ez de Balboa", "addr:city": "Madrid", "addr:housenumber": "97", "addr:postcode": "28006", "amenity": "bar", "contact:phone": "+34 915781590", "name": "Bar Cruz"}}, {"type": "node", "id": 3218082256, "lat": 40.412559, "lon": -3.7136773, "tags": {"amenity": "bar", "name": "Bar Bail\u00e9n 35", "wheelchair": "no"}}, {"type": "node", "id": 3218082258, "lat": 40.412455, "lon": -3.7136885, "tags": {"amenity": "bar", "name": "Bar La Taberna", "wheelchair": "no"}}, {"type": "node", "id": 3218087240, "lat": 40.4128643, "lon": -3.7136074, "tags": {"amenity": "bar", "name": "Bar Esperanza"}}, {"type": "node", "id": 3218093818, "lat": 40.4125175, "lon": -3.7124848, "tags": {"website": "http://www.tacosytapas.es/", "addr:city": "Madrid", "addr:housenumber": "7", "addr:postcode": "28005", "addr:street": "Calle de la Redondilla", "amenity": "bar", "contact:phone": "+34 810 52 47 25", "name": "Tacos & Tapas", "old_name": "Bar de Bor"}}, {"type": "node", "id": 3218100969, "lat": 40.4119249, "lon": -3.7106526, "tags": {"addr:city": "Madrid", "addr:housenumber": "4", "addr:postcode": "28005", "addr:street": "Plaza del Humilladero", "amenity": "bar", "contact:facebook": "https://es-es.facebook.com/LA-MAZETA-108337342520219/", "contact:phone": "+34 696 60 90 85", "name": "La Mazeta", "wheelchair": "no"}}, {"type": "node", "id": 3220340953, "lat": 40.4208512, "lon": -3.7047857, "tags": {"name": "Bar Esteban", "amenity": "bar", "addr:housenumber": "5", "addr:street": "Calle de Concepci\u00f3n Arenal"}}, {"type": "node", "id": 3236026336, "lat": 40.4095776, "lon": -3.7081765, "tags": {"addr:city": "Madrid", "addr:housenumber": "11", "addr:postcode": "28005", "addr:street": "Plaza General Vara del Rey", "amenity": "bar", "name": "La Plaza", "wheelchair": "no", "wheelchair:description": "Escalon > 7cm"}}, {"type": "node", "id": 3236026340, "lat": 40.409597, "lon": -3.7087901, "tags": {"addr:city": "Madrid", "addr:housenumber": "10", "addr:postcode": "28005", "addr:street": "Calle de L\u00f3pez Silva", "amenity": "bar", "name": "Casa \u00c1lvarez", "wheelchair": "limited", "wheelchair:description": "Acceso ba\u00f1o dificil"}}, {"type": "node", "id": 3236026342, "lat": 40.4101687, "lon": -3.7090453, "tags": {"addr:city": "Madrid", "addr:housenumber": "4", "addr:postcode": "28005", "addr:street": "Calle de L\u00f3pez Silva", "amenity": "bar", "contact:phone": "+34620581291", "name": "La Flamenca 3.0", "old_name": "La Flamenca", "wheelchair": "no"}}, {"type": "node", "id": 3237847435, "lat": 40.4194551, "lon": -3.7081087, "tags": {"addr:street": "Calle Costanilla de los \u00c1ngeles", "name": "Click Music Bar", "addr:city": "Madrid", "addr:housenumber": "13", "addr:postcode": "28013", "amenity": "bar", "contact:facebook": "https://es-es.facebook.com/pages/Click-Music-Bar/111400492260071"}}, {"type": "node", "id": 3237847438, "lat": 40.4216052, "lon": -3.7058699, "tags": {"addr:city": "Madrid", "addr:housenumber": "22", "addr:postcode": "28004", "addr:street": "Calle de Silva", "amenity": "bar", "name": "Jos\u00e9 Alfredo", "phone": "+34 915214960", "website": "http://josealfredobar.com/", "wheelchair": "yes", "wheelchair:description": "Escal\u00f3n de entrada de 5 cm, ancho de la puerta 98 cm", "wikidata": "Q57446575"}}, {"type": "node", "id": 3239575169, "lat": 40.4267842, "lon": -3.708945, "tags": {"amenity": "bar", "addr:street": "Calle de la Palma", "addr:postcode": "28015", "name": "Bar Camilo", "addr:housenumber": "73", "addr:city": "Madrid"}}, {"type": "node", "id": 3239575170, "lat": 40.4266806, "lon": -3.7084392, "tags": {"addr:street": "Calle de la Palma", "addr:postcode": "28015", "contact:website": "http://www.beershooter.com/locales/", "name": "Beer Shooter", "addr:housenumber": "69", "amenity": "bar", "old_name": "Beer Bar Brothers", "addr:city": "Madrid"}}, {"type": "node", "id": 3240923396, "lat": 40.4268212, "lon": -3.7085426, "tags": {"addr:city": "Madrid", "addr:housenumber": "66", "addr:postcode": "28015", "addr:street": "Calle de la Palma", "amenity": "bar", "contact:facebook": "https://www.facebook.com/javi4latas/info?tab=overview", "name": "4 Latas"}}, {"type": "node", "id": 3242030110, "lat": 40.4248827, "lon": -3.6956903, "tags": {"name": "Bocadillo de Jam\u00f3n y Champ\u00e1n", "amenity": "bar", "addr:street": "Calle de Fernando VI", "opening_hours": "Mo 19:30-24:00; Tu-We 13:00-16:30, 19:30-24:00; Th-Sa 13:00-16:30, 19:30-00:30, Su 13:00-16:30", "addr:housenumber": "21"}},